ID,Fuel Type Code,Station Name,City,State,EV Level1 EVSE Num,EV Level2 EVSE Num,EV DC Fast Count,EV Network,Geocode Status,Latitude,Longitude,NG Vehicle Class,EV Connector Types,Groups With Access Code (French),Access Detail Code,CNG Dispenser Num,CNG Vehicle Class,LNG Vehicle Class
108,CNG,Clean Energy - Greenpoint - National Grid,Brooklyn,NY,,,,,200-8,40.718037,-73.932309,HD,,Public - Carte de crédit en tout temps,CREDIT_CARD_ALWAYS,1.0,HD,
112,CNG,Canarsie - National Grid,Brooklyn,NY,,,,,200-8,40.64554,-73.918344,MD,,Public - Carte de crédit en tout temps,CREDIT_CARD_ALWAYS,1.0,MD,
124,CNG,Con Edison - W 29th St Service Center,New York,NY,,,,,200-9,40.752903,-74.005831,MD,,Public - Carte-clé en tout temps,KEY_ALWAYS,1.0,MD,
125,CNG,Con Edison - E 16th St Service Center,New York,NY,,,,,200-8,40.729175,-73.97331,MD,,Public - Carte-clé en tout temps,KEY_ALWAYS,1.0,MD,
129,CNG,Con Edison - Van Nest Service Center,Bronx,NY,,,,,GPS,40.8441883,-73.8615724,MD,,Public - Carte-clé en tout temps,KEY_ALWAYS,1.0,MD,
130,CNG,Con Edison - Rye Service Center,Rye,NY,,,,,200-9,40.979001,-73.693048,MD,,Public - Carte-clé en tout temps,KEY_ALWAYS,1.0,MD,
132,CNG,Con Edison - College Point Service Center,Queens,NY,,,,,200-8,40.769623,-73.843069,MD,,Public - Carte-clé en tout temps,KEY_ALWAYS,1.0,MD,
448,CNG,Clean Energy - Brentwood - National Grid,Brentwood,NY,,,,,200-8,40.785664,-73.219818,MD,,TEMPORAIREMENT SUSPENDU (Public - Carte de crédit en tout temps),CREDIT_CARD_ALWAYS,1.0,MD,
449,CNG,Clean Energy - Hicksville - National Grid,Hicksville,NY,,,,,200-8,40.766799,-73.509603,MD,,Public - Carte de crédit en tout temps,CREDIT_CARD_ALWAYS,1.0,MD,
703,CNG,Clean Energy - Albany - National Grid,Menands,NY,,,,,200-9,42.667569,-73.739345,MD,,Public - Carte de crédit en tout temps,CREDIT_CARD_ALWAYS,2.0,MD,
1252,CNG,Nassau Inter-County Express,Garden City,NY,,,,,200-9,40.72954,-73.6075,HD,,Privé - Réservé au gouvernement,GOVERNMENT,,HD,
13401,LPG,Combined Energy Services,Monticello,NY,,,,,200-9,41.651953,-74.672938,,,Public,,,,
13444,LPG,Irish Propane,Buffalo,NY,,,,,GPS,42.8601082048398,-78.85922572883605,,,Public,,,,
18898,CNG,Clean Energy - Riverhead - National Grid,Riverhead,NY,,,,,200-9,40.940028,-72.652774,MD,,Public - Carte de crédit en tout temps,CREDIT_CARD_ALWAYS,1.0,MD,
18900,CNG,Clean Energy - Hewlett - National Grid,Valley Stream,NY,,,,,200-8,40.648881,-73.707638,MD,,Public - Carte de crédit en tout temps,CREDIT_CARD_ALWAYS,1.0,MD,
21435,CNG,City of Rochester,Rochester,NY,,,,,200-9,43.169231,-77.661407,LD,,Privé - Réservé au gouvernement,GOVERNMENT,,LD,
28252,BD,"NY State Office of Parks, Recreation and Historic Preservation - Planting Fields Arboretum",Oyster Bay,NY,,,,,GPS,40.860392,-73.552931,,,Privé - Réservé au gouvernement,GOVERNMENT,,,
29571,BD,John Ray & Sons,Troy,NY,,,,,200-9,42.745934,-73.681895,,,Public - Carte de crédit après les heures d'ouverture,CREDIT_CARD_AFTER_HOURS,,,
30834,CNG,City of New York - Flushing Meadows Corona Park,Flushing,NY,,,,,200-8,40.74099,-73.849958,LD,,Privé - Réservé au gouvernement,GOVERNMENT,,LD,
32785,CNG,New York State Office of Parks - Recreation and Historic Preservation,Niagara Falls,NY,,,,,200-9,43.083477,-79.043775,MD,,Privé - Réservé au gouvernement,GOVERNMENT,,MD,
32837,CNG,Bronx Zoo,Bronx,NY,,,,,200-9,40.850018,-73.878128,MD,,Privé,,,MD,
32838,CNG,Trillium - MTA New York City Transit - West Farms/Coliseum Depot,Bronx,NY,,,,,200-8,40.838672,-73.877566,MD,,Privé - Réservé au gouvernement,GOVERNMENT,,MD,
32839,CNG,Trillium - MTA - Spring Creek,Brooklyn,NY,,,,,200-8,40.661038,-73.864438,HD,,Privé - Réservé au gouvernement,GOVERNMENT,,HD,
32840,CNG,Trillium - MTA New York City Transit - Jackie Gleason Bus Depot,Brooklyn,NY,,,,,GPS,40.6529,-74.0023,HD,,Privé - Réservé au gouvernement,GOVERNMENT,3.0,HD,
33001,E85,Sunoco - McBirney's Auto Service,Massapequa,NY,,,,,200-9,40.692812,-73.464669,,,Public - Carte de crédit après les heures d'ouverture,CREDIT_CARD_AFTER_HOURS,,,
33025,E85,Cumberland Farms #3132,Schenectady,NY,,,,,200-9,42.78657,-73.99777,,,Public,,,,
33393,E85,Joe's Quick Mart - Shell,Irvington,NY,,,,,200-9,41.039006,-73.865296,,,Public,,,,
33404,E85,Citgo,Lindenhurst,NY,,,,,200-9,40.715264,-73.393473,,,Public,,,,
33486,LPG,Ehrhart Propane & Oil,Trumansburg,NY,,,,,GPS,42.5497889,-76.6744609,,,Public,,,,
33538,CNG,Trillium - MTA - College Point,Flushing,NY,,,,,200-8,40.773093,-73.839802,HD,,Privé - Réservé au gouvernement,GOVERNMENT,,HD,
33847,E85,New York State Thruway Authority,Albany,NY,,,,,200-8,42.629724,-73.776371,,,Privé - Réservé au gouvernement,GOVERNMENT,,,
33849,E85,Joe's Quick Mart - Shell,Bedford Hills,NY,,,,,200-9,41.23846,-73.701367,,,Public,,,,
33851,E85,New York State Thruway Authority - Syracuse Section 6,Syracuse,NY,,,,,200-9,43.090389,-76.094177,,,Privé - Réservé au gouvernement,GOVERNMENT,,,
33854,E85,New York State Thruway Authority - Newburgh Maintenance,Newburgh,NY,,,,,200-8,41.509275,-74.06745,,,Privé - Réservé au gouvernement,GOVERNMENT,,,
33986,BD,New York State Thruway Authority - Larchmont Section 4,Larchmont,NY,,,,,200-8,40.931706,-73.766018,,,Privé - Réservé au gouvernement,GOVERNMENT,,,
33989,BD,New York State Thruway Authority - Nyack Section 5,West Nyack,NY,,,,,200-8,41.101648,-73.952196,,,Privé - Réservé au gouvernement,GOVERNMENT,,,
34216,E85,BP,Croton-on-Hudson,NY,,,,,200-9,41.194311,-73.880944,,,Public,,,,
35060,CNG,Manhattan Beer,Bronx,NY,,,,,200-8,40.808151,-73.902589,HD,,Privé,,,HD,
35062,CNG,Long Beach Public Schools,Point Lookout,NY,,,,,GPS,40.59081575559057,-73.61398058095091,HD,,Privé - Réservé au gouvernement,GOVERNMENT,,HD,
35063,CNG,Manhattan Beer,Wyandanch,NY,,,,,200-8,40.755225,-73.357445,HD,,Privé,,,HD,
35317,CNG,American Natural Gas - National Fuel - Buffalo,Buffalo,NY,,,,,200-8,42.861455,-78.800352,HD,,Public - Carte de crédit en tout temps,CREDIT_CARD_ALWAYS,2.0,HD,
35318,CNG,Clean Energy - Town of Brookhaven,Yaphank,NY,,,,,200-8,40.800178,-72.921177,MD,,Public - Carte de crédit en tout temps,CREDIT_CARD_ALWAYS,1.0,MD,
35430,E85,Sunoco,Calverton,NY,,,,,200-9,40.927328,-72.764756,,,Public,,,,
35431,E85,BP,Congers,NY,,,,,200-9,41.146978,-73.933908,,,Public,,,,
35432,E85,Shell - Water Mill Fuel Complex,Water Mill,NY,,,,,200-9,40.915415,-72.348133,,,Public - Carte de crédit après les heures d'ouverture,CREDIT_CARD_AFTER_HOURS,,,
35562,ELEC,New York State Energy Research Development Authority - Headquarters,Albany,NY,1.0,7.0,,Non-Networked,200-9,42.702424,-73.857693,,J1772 NEMA520,Privé,,,,
35579,E85,Sunergy,Massapequa,NY,,,,,200-9,40.691422,-73.477561,,,Public,,,,
35614,E85,Eddie's Service Center - Citgo,Kings Park,NY,,,,,200-9,40.882367,-73.220888,,,Public,,,,
35822,E85,Village Mobil,Albany,NY,,,,,200-9,42.715671,-73.81201,,,Public,,,,
35824,E85,Gasoline Heaven - Gulf,Commack,NY,,,,,200-9,40.844044,-73.277126,,,Public,,,,
35825,E85,Glenmont Mobil,Glenmont,NY,,,,,GPS,42.601571,-73.792571,,,Public,,,,
35828,E85,Richie's Citgo,Melville,NY,,,,,200-9,40.791371,-73.41706,,,Public,,,,
35832,E85,Banahan Brothers,Rye,NY,,,,,200-9,40.977334,-73.695826,,,Public,,,,
35835,E85,Southfields Valero,Southfields,NY,,,,,GPS,41.248483,-74.172356,,,Public,,,,
35921,E85,Wave,Patchogue,NY,,,,,200-9,40.76473,-73.022956,,,Public,,,,
35983,E85,Bob's Tire and Auto Service,Commack,NY,,,,,200-9,40.845379,-73.273087,,,Public,,,,
35985,E85,Conoco,Rockville Centre,NY,,,,,200-9,40.657774,-73.649095,,,Public,,,,
35986,E85,Citgo,Rocky Point,NY,,,,,200-9,40.946992,-72.929752,,,Public,,,,
36327,E85,Bridgehampton Service Station,Bridgehampton,NY,,,,,GPS,40.939222,-72.289942,,,Public,,,,
36328,E85,Gulf Mini Mart,Islandia,NY,,,,,200-9,40.799926,-73.173583,,,Public,,,,
36583,CNG,Town of Hempstead - Department of Conservation & Waterways,Point Lookout,NY,,,,,200-8,40.592118,-73.585241,HD,,Privé,,,HD,
36779,CNG,Clean Energy - Town of Smithtown,Kings Park,NY,,,,,200-9,40.873372,-73.274183,MD,,Public - Carte de crédit en tout temps,CREDIT_CARD_ALWAYS,1.0,MD,
38035,E85,Eastport Valero,Eastport,NY,,,,,GPS,40.836058,-72.744764,,,Public,,,,
38500,E85,Horseblock Petroleum,Farmingville,NY,,,,,200-9,40.829874,-73.014191,,,Public,,,,
38561,BD,National Grid - Bellmore,Bellmore,NY,,,,,200-8,40.665994,-73.538672,,,Privé,,,,
38563,BD,National Grid - Greenlawn,Greenlawn,NY,,,,,200-8,40.858225,-73.386115,,,Privé,,,,
38564,BD,National Grid - Patchogue,Patchogue,NY,,,,,200-8,40.766924,-72.997863,,,Privé,,,,
38565,BD,National Grid - Hicksville,Hicksville,NY,,,,,200-8,40.766992,-73.509655,,,Privé,,,,
39210,E85,Valero - Mount Sinai,Mt. Sinai,NY,,,,,GPS,40.9386342806941,-73.00980312540894,,,Public,,,,
39211,E85,Valero - Selden,Selden,NY,,,,,200-9,40.862041,-73.057233,,,Public,,,,
40324,E85,Norman's Auto Service,New Hyde Park,NY,,,,,200-9,40.753274,-73.703397,,,Public,,,,
40325,E85,Prestige Petroleum - Valero,Newburgh,NY,,,,,200-9,41.555133,-74.004052,,,Public,,,,
40632,E85,Conoco,New Rochelle,NY,,,,,200-9,40.904439,-73.787691,,,Public,,,,
41240,ELEC,James J Peters VA Medical Center,Bronx,NY,,2.0,,Non-Networked,GPS,40.867403,-73.906405,,J1772,Privé - Réservé au gouvernement,GOVERNMENT,,,
42092,CNG,Clean Energy - Syracuse - National Grid,Syracuse,NY,,,,,200-9,43.135479,-76.087402,MD,,Public - Carte de crédit en tout temps,CREDIT_CARD_ALWAYS,2.0,MD,
42093,CNG,Clean N' Green,Buffalo,NY,,,,,200-9,42.844172,-78.747585,HD,,Public - Carte de crédit en tout temps,CREDIT_CARD_ALWAYS,2.0,HD,
42590,CNG,HPW Energy Inc,Westfield,NY,,,,,200-9,42.340677,-79.595958,HD,,Public - Carte de crédit en tout temps,CREDIT_CARD_ALWAYS,1.0,HD,
43572,E85,US Petroleum,East Northport,NY,,,,,200-9,40.877161,-73.325083,,,Public,,,,
43645,CNG,American Natural Gas,Fort Edward,NY,,,,,200-8,43.247885,-73.674145,HD,,Privé,,2.0,HD,
43646,CNG,American Natural Gas,Geneva,NY,,,,,200-9,42.881532,-76.971415,HD,,Privé,,,HD,
44174,ELEC,Thruway Nissan,Newburgh,NY,,1.0,,Non-Networked,200-9,41.504105,-74.068916,,J1772,Public - Appeler à l'avance,CALL,,,
44175,ELEC,Thruway Nissan,Newburgh,NY,,1.0,,Non-Networked,200-9,41.504105,-74.068916,,J1772,Privé,,,,
44176,ELEC,Country Club Imports,Oneonta,NY,,2.0,2.0,Non-Networked,GPS,42.451285,-75.100333,,CHADEMO J1772 J1772COMBO,Public - Appeler à l'avance,CALL,,,
44177,ELEC,Country Club Imports,Oneonta,NY,,1.0,,Non-Networked,GPS,42.451285,-75.100333,,J1772,Privé,,,,
44178,ELEC,West-Herr Nissan,Orchard Park,NY,,1.0,,Non-Networked,200-9,42.784867,-78.76558,,J1772,Public - Appeler à l'avance,CALL,,,
44179,ELEC,West-Herr Nissan,Orchard Park,NY,,1.0,,Non-Networked,200-9,42.784867,-78.76558,,J1772,Privé,,,,
44180,ELEC,Nissan 112,Patchogue,NY,,1.0,1.0,Non-Networked,GPS,40.792986,-73.00827,,CHADEMO J1772,Public - Appeler à l'avance,CALL,,,
44181,ELEC,Nissan 112,Patchogue,NY,,1.0,,Non-Networked,GPS,40.792986,-73.00827,,J1772,Privé,,,,
44182,ELEC,Huttig Nissan,Plattsburgh,NY,,1.0,,Non-Networked,200-9,44.667361,-73.444894,,J1772,Public - Appeler à l'avance,CALL,,,
44183,ELEC,Huttig Nissan,Plattsburgh,NY,,1.0,,Non-Networked,200-9,44.667361,-73.444894,,J1772,Privé,,,,
44184,ELEC,Nissan City - Port Chester,Port Chester,NY,,1.0,,Non-Networked,200-9,40.996358,-73.669405,,J1772,Public - Appeler à l'avance,CALL,,,
44185,ELEC,Nissan City - Port Chester,Port Chester,NY,,1.0,,Non-Networked,200-9,40.996358,-73.669405,,J1772,Privé,,,,
44186,ELEC,Riverhead Auto Mall,Riverhead,NY,,2.0,2.0,Non-Networked,GPS,40.924758,-72.704752,,CHADEMO J1772 J1772COMBO,Public - Appeler à l'avance,CALL,,,
44187,ELEC,Riverhead Auto Mall,Riverhead,NY,,1.0,,Non-Networked,GPS,40.924758,-72.704752,,J1772,Privé,,,,
44188,ELEC,Dorschel Nissan,Rochester,NY,,3.0,,Non-Networked,200-8,43.077581,-77.641934,,J1772,Public - Appeler à l'avance,CALL,,,
44189,ELEC,Dorschel Nissan,Rochester,NY,,1.0,,Non-Networked,200-8,43.077581,-77.641934,,J1772,Privé,,,,
44190,ELEC,Nissan of Smithtown,St. James,NY,,1.0,1.0,Non-Networked,200-9,40.859886,-73.162067,,CHADEMO J1772,Public - Appeler à l'avance,CALL,,,
44191,ELEC,Nissan of Smithtown,St. James,NY,,1.0,,Non-Networked,200-9,40.859886,-73.162067,,J1772,Privé,,,,
44192,ELEC,Lia Nissan,Schenectady,NY,,1.0,,Non-Networked,200-9,42.764517,-73.88522,,J1772,Public - Appeler à l'avance,CALL,,,
44193,ELEC,Lia Nissan,Schenectady,NY,,1.0,,Non-Networked,200-9,42.764517,-73.88522,,J1772,Privé,,,,
44198,ELEC,Legend Nissan,Syosset,NY,,1.0,,Non-Networked,200-9,40.809865,-73.507761,,J1772,Privé,,,,
44201,ELEC,Gregoris Motors,Valley Stream,NY,,1.0,,Non-Networked,200-9,40.670497,-73.717206,,J1772,Public - Appeler à l'avance,CALL,,,
44202,ELEC,Gregoris Motors,Valley Stream,NY,,1.0,,Non-Networked,200-9,40.670497,-73.717206,,J1772,Privé,,,,
44203,ELEC,Legend Nissan,Syosset,NY,,1.0,1.0,Non-Networked,200-9,40.809865,-73.507761,,CHADEMO J1772 J1772COMBO,Public,,,,
44204,ELEC,Serafini Nissan-Volvo,Vestal,NY,,1.0,,Non-Networked,200-9,42.095812,-76.003703,,J1772,Public - Appeler à l'avance,CALL,,,
44205,ELEC,Serafini Nissan-Volvo,Vestal,NY,,1.0,,Non-Networked,200-9,42.095812,-76.003703,,J1772,Privé,,,,
44206,ELEC,Poughkeepsie Nissan,Wappingers Falls,NY,,1.0,,Non-Networked,200-9,41.587383,-73.908392,,J1772,Public - Appeler à l'avance,CALL,,,
44207,ELEC,Poughkeepsie Nissan,Wappingers Falls,NY,,1.0,,Non-Networked,200-9,41.587383,-73.908392,,J1772,Privé,,,,
44208,ELEC,Vision Nissan,Webster,NY,,1.0,,Non-Networked,200-9,43.204065,-77.478237,,J1772,Public - Appeler à l'avance,CALL,,,
44209,ELEC,Vision Nissan,Webster,NY,,1.0,,Non-Networked,200-9,43.204065,-77.478237,,J1772,Privé,,,,
44212,ELEC,Nissan of Westbury,Westbury,NY,,1.0,1.0,Non-Networked,200-8,40.753954,-73.561974,,CHADEMO J1772,Public - Appeler à l'avance,CALL,,,
44213,ELEC,Nissan of Westbury,Westbury,NY,,1.0,,Non-Networked,200-8,40.753954,-73.561974,,J1772,Privé,,,,
44216,ELEC,West Herr Nissan - Williamsville,Williamsville,NY,,1.0,,Non-Networked,GPS,42.96275,-78.691132,,J1772,Public - Appeler à l'avance,CALL,,,
44218,ELEC,Nissan of Yorktown Heights,Yorktown Heights,NY,,2.0,1.0,Non-Networked,200-8,41.289317,-73.835547,,CHADEMO J1772 J1772COMBO,Public - Appeler à l'avance,CALL,,,
44219,ELEC,Nissan of Yorktown Heights,Yorktown Heights,NY,,1.0,,Non-Networked,200-8,41.289317,-73.835547,,J1772,Privé,,,,
44317,ELEC,Destination Nissan,Albany,NY,,1.0,,Non-Networked,200-9,42.676971,-73.787334,,J1772,Public - Appeler à l'avance,CALL,,,
44318,ELEC,Destination Nissan,Albany,NY,,1.0,,Non-Networked,200-9,42.676971,-73.787334,,J1772,Privé,,,,
44319,ELEC,Mike Barney Nissan,Amherst,NY,,2.0,,Non-Networked,200-9,42.979725,-78.797346,,J1772,Public - Appeler à l'avance,CALL,,,
44321,ELEC,Lebrun Nissan,Auburn,NY,,1.0,,Non-Networked,200-9,42.966894,-76.535879,,J1772,Public - Appeler à l'avance,CALL,,,
44323,ELEC,Star Nissan,Bayside,NY,,1.0,,Non-Networked,200-8,40.758245,-73.776954,,J1772,Public - Appeler à l'avance,CALL,,,
44324,ELEC,Star Nissan,Bayside,NY,,1.0,,Non-Networked,200-8,40.758245,-73.776954,,J1772,Privé,,,,
44325,ELEC,Rockland Nissan,Blauvelt,NY,,1.0,,Non-Networked,200-9,41.071072,-73.950866,,J1772,Public - Appeler à l'avance,CALL,,,
44326,ELEC,Rockland Nissan,Blauvelt,NY,,1.0,,Non-Networked,200-9,41.071072,-73.950866,,J1772,Privé,,,,
44327,ELEC,Bay Ridge Nissan,Brooklyn,NY,,1.0,,Non-Networked,200-9,40.636324,-74.019228,,J1772,Public - Appeler à l'avance,CALL,,,
44328,ELEC,Bay Ridge Nissan,Brooklyn,NY,,1.0,,Non-Networked,200-9,40.636324,-74.019228,,J1772,Privé,,,,
44329,ELEC,Kings Nissan,Brooklyn,NY,,1.0,,Non-Networked,200-9,40.589167,-73.960707,,J1772,Public - Appeler à l'avance,CALL,,,
44330,ELEC,Kings Nissan,Brooklyn,NY,,1.0,,Non-Networked,200-9,40.589167,-73.960707,,J1772,Privé,,,,
44331,ELEC,Burdick Nissan,Cicero,NY,,1.0,,Non-Networked,200-9,43.147147,-76.114274,,J1772,Public - Appeler à l'avance,CALL,,,
44332,ELEC,Burdick Nissan,Cicero,NY,,1.0,,Non-Networked,200-9,43.147147,-76.114274,,J1772,Privé,,,,
44333,ELEC,Hoselton Nissan,East Rochester,NY,,1.0,,Non-Networked,200-9,43.100001,-77.481422,,J1772,Public - Appeler à l'avance,CALL,,,
44334,ELEC,Hoselton Nissan,East Rochester,NY,,1.0,,Non-Networked,200-9,43.100001,-77.481422,,J1772,Privé,,,,
44336,ELEC,Rockaway Nissan,Inwood,NY,,1.0,,Non-Networked,200-9,40.622268,-73.742699,,J1772,Public - Appeler à l'avance,CALL,,,
44337,ELEC,Rockaway Nissan,Inwood,NY,,1.0,,Non-Networked,200-9,40.622268,-73.742699,,J1772,Privé,,,,
44338,ELEC,Maguire Nissan,Ithaca,NY,,1.0,,Non-Networked,200-9,42.435042,-76.5088,,J1772,Public - Appeler à l'avance,CALL,,,
44339,ELEC,Maguire Nissan,Ithaca,NY,,1.0,,Non-Networked,200-9,42.435042,-76.5088,,J1772,Privé,,,,
44342,ELEC,Nemet Motors,Jamaica,NY,,1.0,,Non-Networked,200-9,40.707242,-73.803844,,J1772,Public - Appeler à l'avance,CALL,,,
44343,ELEC,Nemet Motors,Jamaica,NY,,1.0,,Non-Networked,200-9,40.707242,-73.803844,,J1772,Privé,,,,
44344,ELEC,Treiber Nissan,Johnstown,NY,,1.0,,Non-Networked,200-9,43.025044,-74.358103,,J1772,Public - Appeler à l'avance,CALL,,,
44345,ELEC,Treiber Nissan,Johnstown,NY,,1.0,,Non-Networked,200-9,43.025044,-74.358103,,J1772,Privé,,,,
44346,ELEC,Nissan - Garden City,Hempstead,NY,,1.0,1.0,Non-Networked,GPS,40.71693,-73.630152,,CHADEMO J1772,Public - Appeler à l'avance,CALL,,,
44347,ELEC,Nissan - Garden City,Hempstead,NY,,1.0,,Non-Networked,GPS,40.71693,-73.630152,,J1772,Privé,,,,
44348,ELEC,Simmons Rockwell Nissan,Horseheads,NY,,1.0,1.0,Non-Networked,GPS,42.16246,-76.867435,,CHADEMO J1772 J1772COMBO,Public - Appeler à l'avance,CALL,,,
44349,ELEC,Simmons Rockwell Nissan,Horseheads,NY,,1.0,,Non-Networked,GPS,42.16246,-76.867435,,J1772,Privé,,,,
44350,ELEC,Nissan - Huntington,Huntington Station,NY,,1.0,1.0,Non-Networked,GPS,40.834455,-73.379693,,CHADEMO J1772,Public - Appeler à l'avance,CALL,,,
44351,ELEC,Nissan - Huntington,Huntington Station,NY,,1.0,,Non-Networked,GPS,40.834455,-73.379693,,J1772,Privé,,,,
44352,ELEC,Kingston Nissan,Kingston,NY,,1.0,1.0,Non-Networked,GPS,41.948965,-74.032033,,CHADEMO J1772,Public - Appeler à l'avance,CALL,,,
44354,ELEC,West Herr Nissan,Lockport,NY,,1.0,,Non-Networked,200-9,43.128557,-78.696197,,J1772,Public - Appeler à l'avance,CALL,,,
44355,ELEC,West Herr Nissan,Lockport,NY,,1.0,,Non-Networked,200-9,43.128557,-78.696197,,J1772,Privé,,,,
44358,ELEC,Nissan Kia - Middletown,New Hampton,NY,,1.0,,Non-Networked,200-9,41.40859,-74.413372,,J1772,Public - Appeler à l'avance,CALL,,,
44359,ELEC,Nissan Kia - Middletown,New Hampton,NY,,1.0,,Non-Networked,200-9,41.40859,-74.413372,,J1772,Privé,,,,
44360,ELEC,Nissan of New Rochelle,New Rochelle,NY,,1.0,1.0,Non-Networked,200-8,40.919104,-73.776645,,CHADEMO J1772 J1772COMBO,Public - Appeler à l'avance,CALL,,,
44361,ELEC,Nissan of New Rochelle,New Rochelle,NY,,1.0,,Non-Networked,200-8,40.919104,-73.776645,,J1772,Privé,,,,
47311,E85,Brookhaven National Laboratory B-20,Upton,NY,,,,,GPS,40.868691,-72.873968,,,Privé - Réservé au gouvernement,GOVERNMENT,,,
47721,ELEC,Baron Nissan,Greenvale,NY,,1.0,,Non-Networked,GPS,40.816267,-73.625869,,J1772,Public - Appeler à l'avance,CALL,,,
47722,ELEC,Baron Nissan,Greenvale,NY,,1.0,,Non-Networked,GPS,40.816267,-73.625869,,J1772,Privé,,,,
48010,CNG,Town of Oyster Bay,Syosset,NY,,,,,200-8,40.784482,-73.5159,HD,,Privé - Réservé au gouvernement,GOVERNMENT,4.0,HD,
48471,BD,Brookhaven National Laboratory B-20,Upton,NY,,,,,GPS,40.868691,-72.873968,,,Privé - Réservé au gouvernement,GOVERNMENT,,,
48893,BD,Mirabito Travel Center,Castle Creek,NY,,,,,200-9,42.231607,-75.916744,,,Public,,,,
48907,CNG,Modern Disposal Services,Lewiston,NY,,,,,200-9,43.182614,-78.984194,HD,,Privé,,40.0,HD,
49285,CNG,Village of Minoa,Minoa,NY,,,,,200-8,43.07816,-75.998345,HD,,Privé - Réservé aux clients de parcs,FLEET,,HD,
49313,E85,New York State Thruway Authority - Clarence Travel Plaza,Clarence,NY,,,,,GPS,42.95248,-78.60289,,,Public,,,,
49676,ELEC,Vision Nissan Greece,Rochester,NY,,3.0,,Non-Networked,200-9,43.216099,-77.73619,,J1772,Public - Appeler à l'avance,CALL,,,
49678,ELEC,Central Avenue Nissan,Yonkers,NY,,1.0,1.0,Non-Networked,GPS,40.964447,-73.840117,,CHADEMO J1772,Public - Appeler à l'avance,CALL,,,
49679,ELEC,Central Avenue Nissan,Yonkers,NY,,2.0,,Non-Networked,GPS,40.964447,-73.840117,,J1772,Privé,,,,
49932,ELEC,Shults Nissan,Jamestown,NY,,1.0,,Non-Networked,200-9,42.115661,-79.253776,,J1772,Public - Appeler à l'avance,CALL,,,
49933,ELEC,Shults Nissan,Jamestown,NY,,1.0,,Non-Networked,200-9,42.115661,-79.253776,,J1772,Privé,,,,
49938,ELEC,Nissan of Queens,Ozone Park,NY,,1.0,,Non-Networked,200-9,40.68117,-73.845621,,J1772,Public - Appeler à l'avance,CALL,,,
49939,ELEC,Nissan of Queens,Ozone Park,NY,,1.0,,Non-Networked,200-9,40.68117,-73.845621,,J1772,Privé,,,,
49941,ELEC,Town of Penfield - Library,Penfield,NY,,1.0,,Non-Networked,200-9,43.137476,-77.465214,,J1772,Public,,,,
50098,LPG,Combined Energy Services,New Hampton,NY,,,,,200-8,41.397445,-74.384605,,,Public,,,,
50266,CNG,Waste Management - Rochester,Rochester,NY,,,,,200-9,43.184356,-77.659942,HD,,Privé,,1.0,HD,
50854,ELEC,ShopRite Plaza,Niskayuna,NY,,2.0,,Non-Networked,200-9,42.816614,-73.889657,,J1772,Public,,,,
51049,E85,Sunoco,Port Jefferson Station,NY,,,,,200-8,40.933471,-73.05379,,,Public - Carte de crédit après les heures d'ouverture,CREDIT_CARD_AFTER_HOURS,,,
51095,ELEC,TRICITYRENTALS WOODLAKE 2,Albany,NY,,2.0,,ChargePoint Network,GPS,42.677277,-73.84716,,J1772,Public,,,,
51126,LPG,Combined Energy Services,Kerhonkson,NY,,,,,200-9,41.771445,-74.313151,,,Public,,,,
51184,E85,Bays Mobil,Salt Point,NY,,,,,200-9,41.781388,-73.75974,,,Public,,,,
51537,ELEC,Fairport Village Landing,Fairport,NY,,6.0,,EV Connect,GPS,43.100514,-77.443475,,J1772,Public,,,,
51610,CNG,Con Edison - Eastview Service Center,Valhalla,NY,,,,,200-9,41.08183,-73.825183,MD,,Public - Carte-clé en tout temps,KEY_ALWAYS,1.0,MD,
52063,ELEC,Lucas Ford,Southold,NY,,2.0,,Non-Networked,200-9,41.069942,-72.43726,,J1772,Public,,,,
52970,BD,National Grid - Watertown,Watertown,NY,,,,,200-9,43.92808,-75.947296,,,Privé,,,,
52974,BD,National Grid - Greenpoint,Greenpoint,NY,,,,,GPS,40.718053,-73.931508,,,Privé,,,,
52975,BD,National Grid - Beacon North,Syracuse,NY,,,,,200-9,43.135479,-76.087402,,,Privé,,,,
52977,BD,Monroe County Regional Transportation - FEV Green Fuel Station,Rochester,NY,,,,,200-8,43.239997,-77.57094,,,Privé - Réservé au gouvernement,GOVERNMENT,,,
52979,BD,National Grid - Roslyn,Roslyn,NY,,,,,GPS,40.7478941,-73.6403215,,,Privé,,,,
53442,ELEC,Ruge's Chevrolet,Millbrook,NY,,1.0,,Non-Networked,200-9,41.791563,-73.659717,,J1772,Public - Appeler à l'avance,CALL,,,
53633,CNG,Trillium - Mirabito,Kirkwood,NY,,,,,200-9,42.102397,-75.839707,HD,,Public - Carte de crédit en tout temps,CREDIT_CARD_ALWAYS,3.0,HD,
53849,E85,OK Petroleum,Centereach,NY,,,,,200-9,40.858097,-73.082718,,,Public,,,,
53851,E85,Mike's Super Citgo,West Babylon,NY,,,,,200-9,40.713916,-73.343892,,,TEMPORAIREMENT SUSPENDU (Public),,,,
53852,E85,BP,Yonkers,NY,,,,,200-9,40.94611,-73.88224,,,Public - Carte de crédit après les heures d'ouverture,CREDIT_CARD_AFTER_HOURS,,,
53894,ELEC,Autosaver Ford,Comstock,NY,,2.0,,Non-Networked,200-9,43.456212,-73.383459,,J1772,Privé,,,,
53975,ELEC,Henderson Ford,Webster,NY,,2.0,,Non-Networked,200-9,43.205714,-77.476722,,J1772,Public - Appeler à l'avance,CALL,,,
53976,ELEC,Steet-Ponte Ford Lincoln Mazda,Yorkville,NY,,1.0,,Non-Networked,200-9,43.110055,-75.293478,,J1772,Public - Appeler à l'avance,CALL,,,
60157,CNG,American Natural Gas,Lancaster,NY,,,,,200-9,42.922551,-78.628437,HD,,Public - Carte de crédit en tout temps,CREDIT_CARD_ALWAYS,2.0,HD,
60270,LPG,Watkins Glen KOA,Watkins Glen,NY,,,,,200-8,42.316373,-76.909097,,,Public,,,,
60271,CNG,1 VRCNG,Port Washington,NY,,,,,200-9,40.841918,-73.69519,HD,,Public - Carte de crédit après les heures d'ouverture,CREDIT_CARD_AFTER_HOURS,2.0,HD,
60739,ELEC,ADELPHI UNIV STATION 01,Garden City,NY,,2.0,,ChargePoint Network,GPS,40.719618,-73.649987,,J1772,Public,,,,
60840,CNG,Manhattan Beer,Suffern,NY,,,,,200-9,41.116716,-74.120396,HD,,Privé,,,HD,
61019,E85,Mirabito Travel Center,Castle Creek,NY,,,,,200-9,42.231607,-75.916744,,,Public,,,,
61063,ELEC,ROCHESTER NY WASH SQ GARAGE2,Rochester,NY,,2.0,,ChargePoint Network,GPS,43.152697,-77.603915,,J1772,Public,,,,
61065,ELEC,ROCHESTER NY COURT ST 2,Rochester,NY,,2.0,,ChargePoint Network,GPS,43.15395,-77.607471,,J1772,Public,,,,
61213,ELEC,ROCHESTER NY PORT OF ROCH 1,Rochester,NY,,2.0,,ChargePoint Network,GPS,43.256302,-77.606672,,J1772,Public,,,,
61254,E85,NOCO Express #27,Amherst,NY,,,,,200-9,43.034675,-78.767652,,,Public,,,,
61345,E85,JFK Airport Travel Plaza - National Grid - Clean Energy,Queens,NY,,,,,GPS,40.66297896114984,-73.7921584550171,,,Public,,,,
61760,ELEC,Broccolo Tree and Lawncare Garden Center,Fairport,NY,,1.0,,Non-Networked,200-9,43.129935,-77.386788,,J1772,Public,,,,
61907,LPG,Gladstone Sunoco,West Henrietta,NY,,,,,200-9,43.0443,-77.659377,,,Public,,,,
62291,BD,Monroe County Regional Transportation,Rochester,NY,,,,,200-9,43.120818,-77.65186,,,Privé - Réservé au gouvernement,GOVERNMENT,,,
62307,ELEC,ROCHESTER NY PUBLC MARKET,Rochester,NY,,2.0,,ChargePoint Network,GPS,43.16603,-77.591324,,J1772,Public,,,,
62471,CNG,GAIN Clean Fuel - Nexus Natural Gas,Tonawanda,NY,,,,,200-9,42.983441,-78.91425,HD,,Public - Carte de crédit en tout temps,CREDIT_CARD_ALWAYS,2.0,HD,
62556,CNG,American Natural Gas,Elmira,NY,,,,,200-9,42.155438,-76.860717,HD,,Privé,,,HD,
63140,ELEC,Village of Spencerport - Town Hall,Spencerport,NY,,2.0,,Non-Networked,GPS,43.191311,-77.801933,,J1772,Public,,,,
63286,E85,Westbury 106 Valero,Westbury,NY,,,,,200-9,40.750129,-73.577703,,,Public,,,,
63287,E85,Conoco,Williston Park,NY,,,,,200-9,40.756145,-73.644781,,,Public,,,,
63478,ELEC,Niagara Falls International Airport,Niagara Falls,NY,,2.0,,Non-Networked,200-9,43.101378,-78.941072,,J1772,Public,,,,
63479,ELEC,Buffalo Niagara International Airport,Buffalo,NY,,3.0,,Non-Networked,GPS,42.933441,-78.731633,,J1772,Public,,,,
63618,ELEC,Leo Kaytes Ford,Warwick,NY,,2.0,,Non-Networked,200-9,41.237296,-74.379503,,J1772,Privé,,,,
63643,ELEC,Towne Ford Lincoln,Orchard Park,NY,,1.0,,Non-Networked,GPS,42.786617,-78.761212,,J1772,Public - Appeler à l'avance,CALL,,,
63674,CNG,Clean Energy - La Guardia Airport,Flushing,NY,,,,,GPS,40.77,-73.89,HD,,Public - Carte de crédit en tout temps,CREDIT_CARD_ALWAYS,1.0,HD,
63976,CNG,Waste Management - West Seneca,Buffalo,NY,,,,,200-9,42.844172,-78.747585,HD,,Privé,,2.0,HD,
63982,ELEC,Finger Lakes Waterfall Resort Motel & Cabins,Burdett,NY,,1.0,,Non-Networked,GPS,42.418993,-76.867035,,J1772,Public - Appeler à l'avance,CALL,,,
63988,ELEC,Rochester Institute of Technology - Lot T,Rochester,NY,,6.0,,Non-Networked,200-9,43.08779,-77.674413,,J1772,Public,,,,
64026,E85,New York State Thruway Authority - Nyack Section 5,West Nyack,NY,,,,,200-8,41.101648,-73.952196,,,Privé - Réservé au gouvernement,GOVERNMENT,,,
64131,ELEC,Albany International Airport,Albany,NY,,16.0,,EV Connect,200-8,42.739746,-73.808186,,J1772,Public,,,,
64140,ELEC,Dana Ford Lincoln,Staten Island,NY,,1.0,,Non-Networked,GPS,40.587162,-74.194747,,J1772,Public - Appeler à l'avance,CALL,,,
64141,ELEC,Ramp Ford,Port Jefferson Station,NY,,1.0,,Non-Networked,200-9,40.91966,-73.051332,,J1772,Public - Appeler à l'avance,CALL,,,
64232,E85,Valero - Newburgh,Newburgh,NY,,,,,GPS,41.52584822712401,-74.12960444445802,,,Public,,,,
64315,E85,Empire Gas Station,Mastic Beach,NY,,,,,GPS,40.803943,-72.853738,,,Public,,,,
64694,CNG,Clean Energy - Cedar Bus Co,Buffalo,NY,,,,,200-9,42.938929,-78.823213,HD,,Public - Carte de crédit en tout temps,CREDIT_CARD_ALWAYS,2.0,HD,
64705,ELEC,Cliff's Elbow Too,Laurel,NY,,1.0,,Non-Networked,200-8,40.968038,-72.562787,,J1772,Public,,,,
64706,ELEC,Cliff's Elbow Room,Jamesport,NY,,1.0,,Non-Networked,200-9,40.948819,-72.582795,,J1772,Public,,,,
65270,ELEC,Town of Cortlandt,Cortlandt,NY,,2.0,,EV Connect,200-9,41.310139,-73.905002,,J1772,Public,,,,
65271,ELEC,Tarrytown Metro - North Train Station,Tarrytown,NY,,3.0,,EV Connect,GPS,41.076261187618826,-73.86568628783567,,J1772,Public,,,,
65273,ELEC,Chappaqua Metro - North Train Station,Chappaqua,NY,,3.0,,EV Connect,200-8,41.159228,-73.773508,,J1772,Public,,,,
65274,ELEC,Hamilton Parking Garage,White Plains,NY,,3.0,,Non-Networked,200-9,41.034121,-73.766241,,J1772,Public,,,,
65275,ELEC,Longview Parking Garage,White Plains,NY,,2.0,,Non-Networked,200-9,41.026867,-73.767674,,J1772,Public,,,,
65276,ELEC,Lyons Place Municipal Parking Garage,White Plains,NY,,2.0,,EV Connect,200-8,41.02894,-73.763727,,J1772,Public,,,,
65277,ELEC,Skaneateles Village Hall,Skaneateles,NY,,3.0,,EV Connect,200-9,42.948234,-76.431694,,J1772,Public,,,,
65278,ELEC,Lexington-Grove East Garage,White Plains,NY,,3.0,,Non-Networked,200-9,41.031464,-73.769946,,J1772,Public,,,,
65281,ELEC,Market 32,Plattsburgh,NY,,2.0,,Non-Networked,200-9,44.695363,-73.492162,,J1772,Public,,,,
65284,ELEC,Beacon Metro North Train Station,Beacon,NY,,4.0,,EV Connect,200-8,41.505079,-73.983205,,J1772,Public,,,,
65285,ELEC,Stony Brook University,Stony Brook,NY,,2.0,,EV Connect,GPS,40.914818,-73.119813,,J1772,Public - Carte de crédit en tout temps,CREDIT_CARD_ALWAYS,,,
65287,ELEC,Port Authority Bus Terminal,New York,NY,,2.0,,EV Connect,200-8,40.756177,-73.990558,,J1772,Public,,,,
65288,ELEC,Bay Ridge Municipal Parking Garage,Brooklyn,NY,,5.0,,EV Connect,200-8,40.62215,-74.02565,,J1772,Public,,,,
65290,ELEC,Court Square Municipal Parking Garage,Queens,NY,,9.0,,EV Connect,200-9,40.745358,-73.942642,,J1772,Public,,,,
65291,ELEC,East 149th Street Municipal Parking Garage,Bronx,NY,,3.0,,EV Connect,200-9,40.817326,-73.920914,,J1772,Public,,,,
65296,ELEC,Saint George Courthouse,Staten Island,NY,,5.0,,EV Connect,200-9,40.63947,-74.076912,,J1772,Public,,,,
65299,ELEC,Jamestown Community College,Jamestown,NY,,2.0,,EV Connect,GPS,42.114535,-79.217718,,J1772,Public,,,,
65302,ELEC,Rouses Point,Rouses Point,NY,,2.0,,EV Connect,200-9,44.991537,-73.36399,,J1772,Public,,,,
65303,ELEC,Long Island Railroad - Freeport,Freeport,NY,,1.0,,EV Connect,GPS,40.656692,-73.580924,,J1772,Public,,,,
65389,CNG,American Natural Gas,Lancaster,NY,,,,,200-9,42.939601,-78.630991,HD,,Privé,,3.0,HD,
65392,CNG,American Natural Gas,Saratoga Springs,NY,,,,,200-8,43.062221,-73.822235,HD,,Public - Carte de crédit en tout temps,CREDIT_CARD_ALWAYS,2.0,HD,
67471,LPG,U-Haul,North Syracuse,NY,,,,,200-9,43.125565,-76.107338,,,Public,,,,
67546,LPG,U-Haul,Syracuse,NY,,,,,200-8,43.051679,-76.124668,,,Public,,,,
67569,LPG,U-Haul,Albany,NY,,,,,200-9,42.749852,-73.867904,,,Public,,,,
67594,LPG,U-Haul,Elmira Heights,NY,,,,,GPS,42.15063,-76.833014,,,Public,,,,
67609,LPG,U-Haul,Greece,NY,,,,,GPS,43.186095,-77.702153,,,Public,,,,
67625,LPG,U-Haul,Irondequoit,NY,,,,,GPS,43.201343,-77.567113,,,Public,,,,
67753,ELEC,ScottTech,Binghamton,NY,,1.0,,Non-Networked,200-9,42.103472,-75.892293,,J1772,Public,,,,
68235,E85,Valero - Wading River,Wading River,NY,,,,,200-9,40.945671,-72.823735,,,Public,,,,
68579,ELEC,Price Chopper,Albany,NY,,1.0,,Non-Networked,200-9,42.664671,-73.790463,,J1772,Public,,,,
68608,CNG,Clean and Green CNG Technologies Corp,Jamestown,NY,,,,,200-9,42.128286,-79.239695,HD,,Public - Carte de crédit en tout temps,CREDIT_CARD_ALWAYS,1.0,HD,
70451,ELEC,Fuccillo Nissan,Liverpool,NY,,1.0,,Non-Networked,200-8,43.185219,-76.242663,,J1772,Public - Appeler à l'avance,CALL,,,
70452,ELEC,Fuccillo Nissan - Latham,Latham,NY,,1.0,,Non-Networked,200-9,42.76943,-73.754611,,J1772,Public - Appeler à l'avance,CALL,,,
70460,ELEC,Fuccillo Nissan,Liverpool,NY,,1.0,,Non-Networked,200-8,43.185219,-76.242663,,J1772,Privé,,,,
71024,ELEC,SUNY ONEONTA SUNY ONEONTA,Oneonta,NY,,2.0,,ChargePoint Network,GPS,42.469481,-75.065723,,J1772,Public,,,,
71421,CNG,Clean Energy - Islip Resource Recovery Agency,Ronkonkoma,NY,,,,,200-9,40.78642,-73.105125,MD,,Public - Carte de crédit en tout temps,CREDIT_CARD_ALWAYS,1.0,MD,
72095,E85,Citgo,Oakdale,NY,,,,,200-9,40.742087,-73.130834,,,Public,,,,
72670,ELEC,Rechler Equity,Plainview,NY,,1.0,,Non-Networked,GPS,40.7865204,-73.4521865,,J1772,Privé,,,,
72907,ELEC,Hampton Inn - Schenectady,Schenectady,NY,,2.0,,Non-Networked,GPS,42.8121531,-73.9409169,,J1772,Public,,,,
72909,ELEC,Hampton Inn - Albany,Albany,NY,,2.0,,Non-Networked,GPS,42.724676,-73.7954479,,J1772,Public,,,,
72918,ELEC,Hampton Inn - British American Blvd,Latham,NY,,2.0,,EV Connect,GPS,42.768177,-73.82062,,J1772,Public,,,,
72921,ELEC,Hampton Inn - Clifton Park,Clifton Park,NY,,2.0,,EV Connect,GPS,42.865495,-73.778228,,J1772,Public,,,,
72970,ELEC,Price Chopper Plaza,Slingerlands,NY,,2.0,,Non-Networked,GPS,42.638663,-73.857186,,J1772,Public,,,,
74631,ELEC,Davidson Nissan,Watertown,NY,,1.0,,Non-Networked,200-9,43.932998,-75.936638,,J1772,Public,,,,
74632,ELEC,Vision Nissan,Canandaigua,NY,,1.0,,Non-Networked,200-9,42.916433,-77.300722,,J1772,Public,,,,
74648,ELEC,United Parcel Service,New York,NY,,2.0,,Non-Networked,200-8,40.762442,-74.000055,,J1772,Privé,,,,
75105,LPG,Lictus Keystone,Clymer,NY,,,,,200-9,42.020413,-79.634017,,,Public,,,,
75475,LPG,Ideal Bottle Gas,Bellport,NY,,,,,200-9,40.806551,-72.947099,,,Public - Carte de crédit en tout temps,CREDIT_CARD_ALWAYS,,,
75843,CNG,American Natural Gas,Gates,NY,,,,,200-9,43.139294,-77.666717,HD,,Public - Carte de crédit en tout temps,CREDIT_CARD_ALWAYS,2.0,HD,
75845,CNG,American Natural Gas,Liverpool,NY,,,,,200-9,43.120271,-76.220444,HD,,Public - Carte de crédit en tout temps,CREDIT_CARD_ALWAYS,2.0,HD,
75944,ELEC,Rochester Institute of Technology - Lot M,Rochester,NY,,2.0,,Non-Networked,200-9,43.08779,-77.674413,,J1772,Public,,,,
77158,CNG,Clean Energy - Bronx NY,Bronx,NY,,,,,200-9,40.805695,-73.880803,HD,,Public - Carte-clé en tout temps,KEY_ALWAYS,1.0,HD,
77665,ELEC,Calverton National Cemetery,Calverton,NY,,1.0,,Non-Networked,GPS,40.924144,-72.816045,,J1772,Privé,,,,
78416,ELEC,SUNation Solar Systems,Ronkonkoma,NY,,3.0,,Non-Networked,200-9,40.79009,-73.130392,,J1772,Privé,,,,
79175,ELEC,Meier's Creek Brewing Co,Cazenovia,NY,,3.0,,Non-Networked,200-9,42.919517,-75.86605,,J1772,Public,,,,
79194,E85,Conoco,Brooklyn,NY,,,,,GPS,40.653468,-73.886256,,,Public,,,,
79256,CNG,Trillium,Bronx,NY,,,,,200-9,40.82289,-73.841375,HD,,Privé,,,HD,
79257,CNG,Trillium,Buffalo,NY,,,,,200-9,42.958917,-78.890221,HD,,Privé,,,HD,
79258,CNG,Trillium,Maspeth,NY,,,,,GPS,40.7174297,-73.9224295,HD,,Privé,,,HD,
80871,ELEC,Bob Johnson Chevrolet,Rochester,NY,,1.0,1.0,Non-Networked,200-9,43.203546,-77.661537,,J1772 J1772COMBO,Public,,,,
80873,ELEC,Peconic Lane Community Center,Peconic,NY,,1.0,,Non-Networked,GPS,41.0437,-72.4568,,J1772,TEMPORAIREMENT SUSPENDU (Public - Carte de crédit en tout temps),CREDIT_CARD_ALWAYS,,,
81608,ELEC,Jim Barnard Chevrolet,Churchville,NY,,1.0,,Non-Networked,200-9,43.099649,-77.897024,,J1772,Public - Appeler à l'avance,CALL,,,
81818,HY,Air Liquide,Hempstead,NY,,,,,200-9,40.69261,-73.631777,,,PRÉVU - pas encore accessible (Public),,,,
82260,ELEC,Fairport Electric,Fairport,NY,,1.0,,EV Connect,GPS,43.10187,-77.43936,,J1772,Public,,,,
82355,ELEC,Davidson Ford,Clay,NY,,2.0,,Non-Networked,GPS,43.181259,-76.256973,,J1772,Public - Appeler à l'avance,CALL,,,
85682,ELEC,Romeo Chevrolet,Lake Katrine,NY,,2.0,1.0,Non-Networked,200-9,41.980335,-73.990256,,J1772 J1772COMBO,Public,,,,
85949,ELEC,Catamount Ski,Hillsdale,NY,,1.0,,Non-Networked,200-8,42.171859,-73.477728,,J1772,Public - Appeler à l'avance,CALL,,,
85969,ELEC,Koeppel Nissan,Jackson Heights,NY,,2.0,1.0,Non-Networked,200-9,40.755072,-73.892094,,CHADEMO J1772 J1772COMBO,Public - Appeler à l'avance,CALL,,,
85970,ELEC,Maguire Nissan,Syracuse,NY,,2.0,,Non-Networked,200-8,43.053474,-76.163547,,J1772,Public - Appeler à l'avance,CALL,,,
86199,ELEC,Honest Weight Co-op,Albany,NY,,2.0,,Non-Networked,200-9,42.678984,-73.782529,,J1772,Public,,,,
86200,ELEC,Marbletown Community Center,Stone Ridge,NY,,2.0,,Non-Networked,GPS,41.852574,-74.139946,,J1772,Public,,,,
86715,ELEC,City of Binghamton - Recreation Park,Binghamton,NY,,2.0,,Non-Networked,200-8,42.099763,-75.935148,,J1772,Public,,,,
87725,ELEC,Prettejohn Public Parking Lot,Livonia,NY,,2.0,,Non-Networked,GPS,42.821089,-77.668047,,J1772,Public,,,,
87863,E85,Valero - Hospital Road,East Patchogue,NY,,,,,GPS,40.78558542800852,-72.97819467724611,,,Public,,,,
87865,E85,JOE'S KWIK MARTS #0471,Homer,NY,,,,,200-9,42.634261,-76.19144,,,Public,,,,
87880,E85,Valero - Newburgh,Newburgh,NY,,,,,200-9,41.526785,-74.071415,,,Public,,,,
87914,ELEC,Long Island Welcome Center,Dix Hills,NY,,,2.0,Non-Networked,GPS,40.802658,-73.316725,,CHADEMO,Public,,,,
88340,ELEC,Lakeland Park,Cazenovia,NY,,2.0,,Non-Networked,200-8,42.929429,-75.859296,,J1772,Public,,,,
88498,ELEC,North Creek Heads in Beds,North Creek,NY,1.0,1.0,,Non-Networked,200-9,43.69475,-73.985344,,J1772 NEMA520,Public,,,,
89914,ELEC,Davidson Chevrolet Cadillac Buick GMC of Rome,Rome,NY,,3.0,1.0,Non-Networked,GPS,43.232936,-75.496866,,J1772 J1772COMBO,Privé,,,,
91865,ELEC,Price Chopper,Liverpool,NY,,2.0,,Non-Networked,200-9,43.18835,-76.2455,,J1772,Public,,,,
92019,E85,Conoco,Cedarhurst,NY,,,,,200-9,40.628163,-73.736919,,,Public,,,,
92029,E85,Mobil - Fishkill,Fishkill,NY,,,,,200-9,41.527946,-73.891745,,,Public,,,,
92042,E85,Shamrock,Baldwin,NY,,,,,200-9,40.651271,-73.604003,,,Public - Carte de crédit après les heures d'ouverture,CREDIT_CARD_AFTER_HOURS,,,
92116,ELEC,Village of Sodus,Sodus,NY,,2.0,,Non-Networked,200-9,43.235555,-77.061621,,J1772,Public,,,,
94576,ELEC,Fairport North - Main Parking,Fairport,NY,,6.0,,EV Connect,GPS,43.104278,-77.440851,,J1772,Public,,,,
94826,ELEC,Calspan Corp Flight Research Center,Niagara Falls,NY,,2.0,,EV Connect,200-8,43.09971,-78.939097,,J1772,Public,,,,
94828,ELEC,Town of Dickinson,Binghamton,NY,,2.0,,EV Connect,200-9,42.11978,-75.912473,,J1772,Public,,,,
94829,ELEC,Metro North Train Station - Southeast,Brewster,NY,,4.0,,EV Connect,200-9,41.416405,-73.624373,,J1772,Public,,,,
94830,ELEC,Parking Garage,Bronx,NY,,1.0,,EV Connect,200-8,40.863131,-73.900529,,J1772,Public,,,,
94831,ELEC,Parking Garage,Brooklyn,NY,,10.0,,EV Connect,200-9,40.737171,-73.949257,,J1772,Public,,,,
94832,ELEC,Brooklyn Navy Yard,Brooklyn,NY,,8.0,,EV Connect,200-8,40.698235,-73.975114,,J1772,Public,,,,
94835,ELEC,Village of Champlain,Champlain,NY,,2.0,,EV Connect,200-9,44.983225,-73.444864,,J1772,Public,,,,
94836,ELEC,The Lovett Group,College Point,NY,,8.0,,EV Connect,200-8,40.785772,-73.857401,,J1772,Public,,,,
94837,ELEC,Cortlandt Train Station,Cortlandt Manor,NY,,4.0,,EV Connect,GPS,41.244889,-73.92333,,J1772,Public,,,,
94838,ELEC,Fair Haven Public Works,Fair Haven,NY,,2.0,,EV Connect,200-9,43.319653,-76.698558,,J1772,Public,,,,
94840,ELEC,New York Power Authority - Blenheim-Gilboa Project,Gilboa,NY,,2.0,,EV Connect,200-9,42.44229,-74.447636,,J1772,Public,,,,
94841,ELEC,Marriott Hauppauge,Hauppauge,NY,,2.0,,EV Connect,GPS,40.819636,-73.204528,,J1772,Public - Appeler à l'avance,CALL,,,
94842,ELEC,Office Building,Hicksville,NY,,3.0,,EV Connect,200-8,40.76828,-73.528019,,J1772,Public,,,,
94843,ELEC,Homer Recreation Department,Homer,NY,,2.0,,EV Connect,200-8,42.63465,-76.178589,,J1772,Public,,,,
94844,ELEC,Spectrum,Jamaica,NY,,2.0,,EV Connect,200-8,40.696909,-73.816114,,J1772,Public,,,,
94845,ELEC,Central Parking Corp,Jamestown,NY,,2.0,,EV Connect,200-9,42.097522,-79.242525,,J1772,Public,,,,
94848,ELEC,Delancey & Essex Municipal Parking Garage,Manhattan,NY,,5.0,,EV Connect,200-8,40.719051,-73.988181,,J1772,Public,,,,
94849,ELEC,Marcellus Village Police Department,Marcellus,NY,,1.0,,EV Connect,200-9,42.98282,-76.34141,,J1772,Public,,,,
94850,ELEC,Hilton,Melville,NY,,1.0,,EV Connect,200-8,40.76379,-73.423658,,J1772,Public - Appeler à l'avance,CALL,,,
94851,ELEC,New York State Department of Transportation - Exit 14 Park & Ride,Nanuet,NY,,3.0,,EV Connect,GPS,41.10363490203234,-74.02818166137693,,J1772,Public,,,,
94853,ELEC,Sky Zone Trampoline Park,New Rochelle,NY,,4.0,,EV Connect,200-9,40.911315,-73.779296,,J1772,Public,,,,
94854,ELEC,Spectrum,New York,NY,,8.0,,EV Connect,200-8,40.87121,-73.911616,,J1772,Public,,,,
94855,ELEC,Residence Inn - Marriott Poughkeepsie,Poughkeepsie,NY,,2.0,,EV Connect,GPS,41.660699,-73.932808,,J1772,Public - Appeler à l'avance,CALL,,,
94856,ELEC,New York State Department of Transportation - Taste NY Market,Lagrangeville,NY,,2.0,,EV Connect,GPS,41.656857,-73.789422,,J1772,Public,,,,
94858,ELEC,Courtyard Marriott,Rye,NY,,2.0,,EV Connect,200-9,40.989535,-73.672445,,J1772,Public - Appeler à l'avance,CALL,,,
94859,ELEC,Homewood Suites,Saratoga Springs,NY,,2.0,,EV Connect,GPS,43.05419501266957,-73.78681016931154,,J1772,Public - Appeler à l'avance,CALL,,,
94861,ELEC,Spectrum,Staten Island,NY,,2.0,,EV Connect,200-9,40.630898,-74.168358,,J1772,Privé,,,,
94862,ELEC,Stony Brook University,Stony Brook,NY,,2.0,,EV Connect,200-8,40.913685,-73.116048,,J1772,Public,,,,
94863,ELEC,Residence Inn,Syracuse,NY,,2.0,,EV Connect,200-9,43.09077,-76.088086,,J1772,Public - Appeler à l'avance,CALL,,,
94865,ELEC,Westchester County Department of Health,White Plains,NY,,3.0,,EV Connect,200-8,41.031941,-73.769376,,J1772,Public,,,,
94867,ELEC,Office Building,White Plains,NY,,7.0,,EV Connect,200-9,41.051099,-73.771738,,J1772,Privé,,,,
94868,ELEC,Windsor Town Court Room,Windsor,NY,,2.0,,EV Connect,200-9,42.077966,-75.639472,,J1772,Public,,,,
94869,ELEC,Art Delta New York,Woodside,NY,,2.0,,EV Connect,GPS,40.763053,-73.902931,,J1772,Public,,,,
94870,ELEC,City of Yonkers,Yonkers,NY,,3.0,,EV Connect,200-9,40.932276,-73.897606,,J1772,Public,,,,
94871,ELEC,Yonkers Parking Authority,Yonkers,NY,,4.0,,EV Connect,200-9,40.93427,-73.902149,,J1772,Public,,,,
95069,ELEC,Central Parking - Tower 31,New York,NY,,1.0,,Blink Network,GPS,40.747098,-73.986641,,J1772,Public,,,,
95270,ELEC,iPark - Paradise Garage,Rego Park,NY,,2.0,,Blink Network,GPS,40.733347,-73.858012,,J1772,Public,,,,
96646,ELEC,Tribeca Park,New York,NY,,2.0,,Blink Network,GPS,40.717717,-74.015049,,J1772,Privé,,,,
98431,ELEC,Tony Mangino Mitsubishi,Clifton Park,NY,,2.0,,Non-Networked,200-9,42.858085,-73.762909,,J1772,Public,,,,
98674,ELEC,Environmental Protection Agency,New York,NY,,5.0,,Non-Networked,GPS,40.714723,-74.005143,,J1772,Privé,,,,
98692,ELEC,United States Marine Corps,Garden City,NY,,3.0,,Non-Networked,GPS,40.729637,-73.615008,,J1772,Privé,,,,
98772,E85,Speedway,Grand Island,NY,,,,,200-9,43.021206,-78.962025,,,Public,,,,
98836,ELEC,James Mitsubishi - Hamburg,Hamburg,NY,,2.0,,Non-Networked,200-9,42.746772,-78.852481,,J1772,Public,,,,
99360,ELEC,Village of Waterville - West Main Street,Waterville,NY,,2.0,,Non-Networked,200-8,42.930765,-75.38053,,J1772,Public,,,,
99500,ELEC,Nissan of Staten Island,Staten Island,NY,,1.0,,Non-Networked,200-9,40.581432,-74.097694,,J1772,Public,,,,
99538,ELEC,New York State Department of Environmental Conservation - Stony Brook,Stony Brook,NY,1.0,4.0,,Non-Networked,200-8,40.910066,-73.124122,,J1772 NEMA520,Privé,,,,
99950,ELEC,Town of Veteran,Millport,NY,,2.0,,Non-Networked,200-9,42.250834,-76.838332,,J1772,Public,,,,
102325,ELEC,Colonie Center - Tesla Supercharger,Albany,NY,,,6.0,Tesla,200-8,42.710356,-73.819109,,TESLA,Public,,,,
102326,ELEC,The Spot Restaurant - Tesla Supercharger,Binghamton,NY,,,8.0,Tesla,200-9,42.145542,-75.902081,,TESLA,Public,,,,
102327,ELEC,North 12 Parking (at the William Vale) - Tesla Supercharger,Brooklyn,NY,,,4.0,Tesla,200-8,40.721853,-73.956658,,TESLA,Public,,,,
102328,ELEC,Shops at Main / Transit - Tesla Supercharger,Buffalo,NY,,,8.0,Tesla,200-9,42.968675,-78.69568,,TESLA,Public,,,,
102329,ELEC,Stewart’s Shop - Tesla Supercharger,Clinton Corners,NY,,,8.0,Tesla,200-9,41.825379,-73.770409,,TESLA,Public,,,,
102330,ELEC,Crossgates Mall - Tesla Supercharger,Guilderland,NY,,,20.0,Tesla,200-8,42.68869,-73.853254,,TESLA,Public,,,,
102331,ELEC,QuickChek - Tesla Supercharger,Kingston,NY,,,8.0,Tesla,200-9,41.941893,-74.027428,,TESLA,Public,,,,
102332,ELEC,Holiday Inn - Tesla Supercharger,Liverpool,NY,,,8.0,Tesla,200-8,43.102424,-76.187446,,TESLA,Public,,,,
102333,ELEC,New Roc Garage - Tesla Supercharger,New Rochelle,NY,,,8.0,Tesla,GPS,40.912547,-73.780488,,TESLA,Public,,,,
102334,ELEC,Mott Street Parking - Tesla Supercharger,New York,NY,,,2.0,Tesla,200-9,40.717522,-73.997302,,TESLA,Public,,,,
102335,ELEC,W 75th Parking Garage - Tesla Supercharger,New York,NY,,,4.0,Tesla,200-8,40.780976,-73.980414,,TESLA,Public,,,,
102336,ELEC,E 47th Street - Tesla Supercharger,New York,NY,,,4.0,Tesla,200-9,40.753356,-73.971685,,TESLA,Public,,,,
102338,ELEC,125 Victory Hwy - Tesla Supercharger,Painted Post,NY,,,10.0,Tesla,200-9,42.170757,-77.108063,,TESLA,Public,,,,
102339,ELEC,Country Pointe Plainview - Tesla Supercharger,Plainview,NY,,,8.0,Tesla,200-8,40.779854,-73.450709,,TESLA,Public,,,,
102340,ELEC,Champlain Centre - Tesla Supercharger,Plattsburgh,NY,,,8.0,Tesla,200-8,44.704537,-73.491829,,TESLA,Public,,,,
102341,ELEC,JFK Airport Travel Plaza - Tesla Supercharger,Queens,NY,,,4.0,Tesla,GPS,40.66179,-73.79282,,TESLA,Public,,,,
102342,ELEC,Aviation Mall - Tesla Supercharger,Queensbury,NY,,,8.0,Tesla,200-8,43.328388,-73.679992,,TESLA,Public,,,,
102343,ELEC,Cafe Crust - Tesla Supercharger,Southampton,NY,,,8.0,Tesla,200-9,40.891909,-72.426995,,TESLA,Public,,,,
102344,ELEC,Green Acres Commons - Tesla Supercharger,Valley Stream,NY,,,16.0,Tesla,200-9,40.664127,-73.7251,,TESLA,Public,,,,
102346,ELEC,Sheraton Tarrytown Hotel - Tesla Supercharger,Tarrytown,NY,,,12.0,Tesla,200-8,41.0615,-73.836457,,TESLA,Public,,,,
102347,ELEC,North Utica Shopping Center - Tesla Supercharger,Utica,NY,,,8.0,Tesla,200-9,43.113878,-75.206857,,TESLA,Public,,,,
102348,ELEC,Eastview Mall - Tesla Supercharger,Victor,NY,,,8.0,Tesla,200-8,43.028655,-77.440128,,TESLA,Public,,,,
102349,ELEC,del Lago Resort and Casino - Tesla Supercharger,Waterloo,NY,,,8.0,Tesla,200-8,42.969252,-76.846005,,TESLA,Public,,,,
102350,ELEC,Salmon Run Mall - Tesla Supercharger,Watertown,NY,,,8.0,Tesla,200-9,43.979585,-75.954114,,TESLA,Public,,,,
102351,ELEC,Westchester's Ridge Hill - Tesla Supercharger,Yonkers,NY,,,18.0,Tesla,GPS,40.963395,-73.854936,,TESLA,Public,,,,
102587,E85,Conoco,Floral Park,NY,,,,,200-9,40.725681,-73.718546,,,Public,,,,
103196,LPG,Mirabito Fuels,Vestal,NY,,,,,GPS,42.1031455784432,-75.9985083263893,,,Public,,,,
103810,ELEC,Village of Lima,Lima,NY,,2.0,,EV Connect,GPS,42.905519,-77.611086,,J1772,Public,,,,
104135,ELEC,Village of Cherry Valley,Cherry Valley,NY,,2.0,,Non-Networked,200-9,42.797294,-74.758022,,J1772,Public,,,,
104341,ELEC,WCS NS1 BOSTON RD,Bronx,NY,,1.0,,ChargePoint Network,GPS,40.846205,-73.876513,,J1772,Public,,,,
104725,ELEC,Western New York Welcome Center,Grand Island,NY,,,3.0,Non-Networked,GPS,43.01931644111694,-78.97480837406613,,CHADEMO J1772COMBO,Public,,,,
104726,ELEC,Augspurger Ramp,Buffalo,NY,,6.0,,EV Connect,200-8,42.889784,-78.874463,,J1772,Public - Carte de crédit en tout temps,CREDIT_CARD_ALWAYS,,,
104727,ELEC,Main Place Ramp,Buffalo,NY,,4.0,,EV Connect,GPS,42.883926,-78.87605,,J1772,Public - Carte de crédit en tout temps,CREDIT_CARD_ALWAYS,,,
104728,ELEC,Fernbach Ramp,Buffalo,NY,,4.0,,EV Connect,200-8,42.884991,-78.876036,,J1772,TEMPORAIREMENT SUSPENDU (Public - Carte de crédit en tout temps),CREDIT_CARD_ALWAYS,,,
104729,ELEC,Turner Ramp,Buffalo,NY,,4.0,,EV Connect,GPS,42.885934,-78.879364,,J1772,Public - Carte de crédit en tout temps,CREDIT_CARD_ALWAYS,,,
104730,ELEC,Douglas Development,Buffalo,NY,,2.0,,Non-Networked,GPS,42.879878,-78.875574,,J1772,Privé,,,,
104731,ELEC,Adam Ramp,Buffalo,NY,,6.0,,EV Connect,GPS,42.883894,-78.873775,,J1772,Public - Carte de crédit en tout temps,CREDIT_CARD_ALWAYS,,,
104733,ELEC,TownePlace Suites - Buffalo Airport,Buffalo,NY,,4.0,,Non-Networked,GPS,42.93057,-78.728499,,J1772,Public,,,,
104734,ELEC,Buffalo State - Cleveland Hall,Buffalo,NY,,2.0,,Non-Networked,GPS,42.932067,-78.88137,,J1772,Public,,,,
104824,ELEC,Town of Danby - Town Hall,Danby,NY,,2.0,,EV Connect,GPS,42.354047,-76.481886,,J1772,Public,,,,
104977,ELEC,Southern Tier Welcome Center,Kirkwood,NY,,,2.0,Non-Networked,GPS,42.020139,-75.780637,,CHADEMO J1772COMBO,Public,,,,
104978,ELEC,Queensbury Rest Area - Northbound,Queensbury,NY,,,2.0,Non-Networked,GPS,43.273451,-73.674594,,CHADEMO J1772COMBO,Public,,,,
105187,ELEC,Mohawk Ramp,Buffalo,NY,,2.0,,EV Connect,GPS,42.887468,-78.872406,,J1772,Public,,,,
114878,ELEC,AAA Albany - Tesla Destination,Albany,NY,,4.0,,Tesla Destination,200-9,42.636441,-73.791489,,J1772 TESLA,Public,,,,
114879,ELEC,Troutbeck - Tesla Destination,Amenia,NY,,2.0,,Tesla Destination,200-9,41.855019,-73.515167,,TESLA,Public,,,,
114880,ELEC,Paumanok Vineyards - Tesla Destination,Aquebogue,NY,,1.0,,Tesla Destination,GPS,40.94872520718034,-72.60259362432862,,TESLA,Public - Appeler à l'avance,CALL,,,
114881,ELEC,Astoria Central Parking - Tesla Destination,Astoria,NY,,4.0,,Tesla Destination,200-8,40.762763,-73.924473,,TESLA,Public,,,,
114882,ELEC,Peppermint's Restaurant - Tesla Destination,Avon,NY,,3.0,,Tesla Destination,200-9,42.910883,-77.735952,,TESLA,Public,,,,
114883,ELEC,DoubleTree by Hilton Binghamton - Tesla Destination,Binghamton,NY,,1.0,,Tesla Destination,200-9,42.101763,-75.914203,,TESLA,Public,,,,
114884,ELEC,Scotttech - Tesla Destination,Binghamton,NY,,1.0,,Tesla Destination,200-9,42.103472,-75.892293,,TESLA,Public,,,,
114885,ELEC,Fairfield Inn by Marriott Binghamton - Tesla Destination,Binghamton,NY,,3.0,,Tesla Destination,200-8,42.130103,-75.905801,,J1772 TESLA,Public,,,,
114886,ELEC,Hunt County Vineyards - Tesla Destination,Branchport,NY,,5.0,,Tesla Destination,200-9,42.591377,-77.172899,,J1772 TESLA,Public,,,,
114887,ELEC,Point Place Casino - Tesla Destination,Bridgeport,NY,,2.0,,Tesla Destination,200-9,43.154875,-75.965306,,TESLA,Public,,,,
114888,ELEC,Century Parking Corp - Tesla Destination,Bronx,NY,,4.0,,Tesla Destination,200-9,40.878611,-73.914792,,TESLA,Public,,,,
114889,ELEC,Standard Parking 1360 Fulton Street - Tesla Destination,Brooklyn,NY,,2.0,,Tesla Destination,200-9,40.679983,-73.946504,,TESLA,Public,,,,
114890,ELEC,Standard Parking 15 Metrotech - Tesla Destination,Brooklyn,NY,,3.0,,Tesla Destination,200-8,40.693317,-73.9871,,J1772 TESLA,Public,,,,
114891,ELEC,Quik Park Armory Parking Inc. - Tesla Destination,Brooklyn,NY,,2.0,,Tesla Destination,200-8,40.692372,-73.969893,,TESLA,Public,,,,
114892,ELEC,Discount Parking 180 Ashland Place - Tesla Destination,Brooklyn,NY,,2.0,,Tesla Destination,200-8,40.689411,-73.978741,,TESLA,Public,,,,
114893,ELEC,iPark 22/34 N 6th Garage Corp - Tesla Destination,Brooklyn,NY,,4.0,,Tesla Destination,200-8,40.718794,-73.962594,,J1772 TESLA,Public,,,,
114894,ELEC,iPark 247 N 7th Street - Tesla Destination,Brooklyn,NY,,3.0,,Tesla Destination,200-9,40.716085,-73.954508,,J1772 TESLA,Public,,,,
114895,ELEC,Parkright 257 Gold Street - Tesla Destination,Brooklyn,NY,,3.0,,Tesla Destination,200-9,40.696871,-73.983002,,J1772 TESLA,Public,,,,
114896,ELEC,Standard Parking Pierepoint Plaza - Tesla Destination,Brooklyn,NY,,3.0,,Tesla Destination,GPS,40.695115,-73.990993,,J1772 TESLA,Public,,,,
114897,ELEC,Enterprise 309 Gold Street - Tesla Destination,Brooklyn,NY,,3.0,,Tesla Destination,200-9,40.695013,-73.982843,,J1772 TESLA,Public,,,,
114898,ELEC,iPark NYC 2234 North 6th - Tesla Destination,Brooklyn,NY,,3.0,,Tesla Destination,200-9,40.719756,-73.962933,,J1772 TESLA,Public,,,,
114900,ELEC,Standard Parking 1 Metrotech - Tesla Destination,Brooklyn,NY,,3.0,,Tesla Destination,200-9,40.693216,-73.986716,,J1772 TESLA,Public,,,,
114901,ELEC,GGMC Belltel Car Park - Tesla Destination,Brooklyn,NY,,3.0,,Tesla Destination,200-8,40.692645,-73.985451,,J1772 TESLA,Public,,,,
114902,ELEC,Quik Park 365 Management LLC - Tesla Destination,Brooklyn,NY,,3.0,,Tesla Destination,200-9,40.677433,-73.990299,,J1772 TESLA,Public,,,,
114903,ELEC,GMC 388 Bridge Street - Tesla Destination,Brooklyn,NY,,3.0,,Tesla Destination,200-9,40.691652,-73.985733,,TESLA,Public,,,,
114904,ELEC,Quik Park Brooklyn Bridge LLC - Tesla Destination,Brooklyn,NY,,3.0,,Tesla Destination,200-8,40.693949,-74.00025,,J1772 TESLA,Public,,,,
114905,ELEC,Rapidpark 44 State Street - Tesla Destination,Brooklyn,NY,,3.0,,Tesla Destination,200-8,40.691871,-73.998307,,J1772 TESLA,Public,,,,
114906,ELEC,Park Kwik LLC 50 Washington St. - Tesla Destination,Brooklyn,NY,,3.0,,Tesla Destination,200-9,40.702769,-73.990584,,J1772 TESLA,Public,,,,
114907,ELEC,Kings County Parking - Tesla Destination,Brooklyn,NY,,2.0,,Tesla Destination,200-9,40.656148,-73.940355,,TESLA,Public,,,,
114908,ELEC,1 Hotel Brooklyn Bridge - Tesla Destination,Brooklyn,NY,,7.0,,Tesla Destination,200-9,40.702241,-73.995539,,J1772 TESLA,Public,,,,
114909,ELEC,City Parking Linc Garage - Tesla Destination,Brooklyn,NY,,3.0,,Tesla Destination,200-8,40.71955,-73.96413,,J1772 TESLA,Public,,,,
114910,ELEC,"Littleman Driggs Parking, LLC - Tesla Destination",Brooklyn,NY,,3.0,,Tesla Destination,200-9,40.715405,-73.958638,,J1772 TESLA,Public,,,,
114911,ELEC,GGMC Parking 66 Rockwell Pl Garage - Tesla Destination,Brooklyn,NY,,3.0,,Tesla Destination,200-8,40.68806,-73.979449,,J1772 TESLA,Public,,,,
114912,ELEC,Standard Parking 200 Cadman Plaza West - Tesla Destination,Brooklyn,NY,,3.0,,Tesla Destination,200-9,40.698807,-73.991859,,J1772 TESLA,Public,,,,
114913,ELEC,GGMC Parking 75 Smith St Garage - Tesla Destination,Brooklyn,NY,,3.0,,Tesla Destination,200-9,40.688799,-73.988642,,J1772 TESLA,Public,,,,
114914,ELEC,Standard Parking 2 Metrotech - Tesla Destination,Brooklyn,NY,,3.0,,Tesla Destination,200-8,40.692919,-73.987193,,J1772 TESLA,Public,,,,
114915,ELEC,Quik Park 81 Fleet Place LLC - Tesla Destination,Brooklyn,NY,,3.0,,Tesla Destination,200-9,40.693208,-73.981326,,J1772 TESLA,Public,,,,
114916,ELEC,Rapidpark 906 Union Street - Tesla Destination,Brooklyn,NY,,3.0,,Tesla Destination,200-9,40.672726,-73.971664,,J1772 TESLA,Public,,,,
114917,ELEC,MPG 100 Jay Street - Tesla Destination,Brooklyn,NY,,3.0,,Tesla Destination,200-9,40.702004,-73.987053,,J1772 TESLA,Public,,,,
114918,ELEC,imPark 101 Bedford Ave - Tesla Destination,Brooklyn,NY,,3.0,,Tesla Destination,200-9,40.720014,-73.95455,,J1772 TESLA,Public,,,,
114919,ELEC,The William Vale Hotel - Tesla Destination,Brooklyn,NY,,4.0,,Tesla Destination,200-8,40.722362,-73.957208,,TESLA,Public,,,,
114920,ELEC,Holiday Inn Express Canandaigua - Finger Lakes - Tesla Destination,Canandaigua,NY,,3.0,,Tesla Destination,200-8,42.878166,-77.255793,,J1772 TESLA,Public,,,,
114921,ELEC,Best Western University Inn - Tesla Destination,Canton,NY,,3.0,,Tesla Destination,200-9,44.596265,-75.149319,,J1772 TESLA,Public,,,,
114922,ELEC,Glenmere Mansion - Tesla Destination,Chester,NY,,3.0,,Tesla Destination,200-9,41.338768,-74.322712,,J1772 TESLA,Public - Appeler à l'avance,CALL,,,
114923,ELEC,The Fern Lodge - Tesla Destination,Chestertown,NY,,2.0,,Tesla Destination,200-9,43.625316,-73.850472,,TESLA,Public,,,,
114924,ELEC,Asa Ransom House - Tesla Destination,Clarence,NY,,1.0,,Tesla Destination,200-9,42.980201,-78.595784,,TESLA,Public,,,,
114925,ELEC,"The Inn at Cooperstown, a Select Registry Property - Tesla Destination",Cooperstown,NY,,2.0,,Tesla Destination,200-9,42.70163,-74.926982,,J1772 TESLA,Public,,,,
114926,ELEC,Fairfield Inn by Marriott Corning Riverside - Tesla Destination,Corning,NY,,3.0,,Tesla Destination,200-9,42.153255,-77.080389,,J1772 TESLA,Public,,,,
114927,ELEC,Comfort Inn - Tesla Destination,Corning,NY,,3.0,,Tesla Destination,200-9,42.150849,-77.064055,,J1772 TESLA,Public,,,,
114928,ELEC,Storm King Tavern and Golf Club - Tesla Destination,Cornwall,NY,,2.0,,Tesla Destination,200-9,41.429428,-74.028204,,TESLA,Public,,,,
114929,ELEC,Hampton Inn Cortland - Tesla Destination,Cortland,NY,,2.0,,Tesla Destination,200-8,42.606836,-76.164117,,J1772 TESLA,Public,,,,
114930,ELEC,"Country Inn & Suites By Carlson, Cortland, NY - Tesla Destination",Cortland,NY,,3.0,,Tesla Destination,GPS,42.58651636556208,-76.21167520104979,,J1772 TESLA,Public,,,,
114931,ELEC,The Farmhouse Bed and Breakfast - Tesla Destination,Cutchogue,NY,,2.0,,Tesla Destination,200-9,41.015587,-72.489904,,J1772 TESLA,Public - Appeler à l'avance,CALL,,,
114932,ELEC,River Spring Lodge - Tesla Destination,Darien Center,NY,,1.0,,Tesla Destination,200-9,42.86245,-78.34496,,TESLA,Public - Appeler à l'avance,CALL,,,
114933,ELEC,Culinary Arts Center at Auburn Watson - Tesla Destination,Depew,NY,,2.0,,Tesla Destination,200-9,42.911728,-78.694835,,J1772 TESLA,Public,,,,
114935,ELEC,The FLX Wienery - Tesla Destination,Dundee,NY,,2.0,,Tesla Destination,200-9,42.519115,-76.922429,,J1772 TESLA,Public - Appeler à l'avance,CALL,,,
114936,ELEC,Hampton Inn East Aurora - Tesla Destination,East Aurora,NY,,3.0,,Tesla Destination,200-8,42.766365,-78.608141,,J1772 TESLA,Public,,,,
114937,ELEC,Hampton Inn LaGuardia Airport - Tesla Destination,East Elmhurst,NY,,2.0,,Tesla Destination,200-9,40.767871,-73.867659,,J1772 TESLA,Public,,,,
114938,ELEC,Luce Ristorante - Tesla Destination,East Norwich,NY,,3.0,,Tesla Destination,200-9,40.843546,-73.532489,,J1772 TESLA,Public,,,,
114939,ELEC,MPG The Shops at Skyview - Tesla Destination,Flushing,NY,,3.0,,Tesla Destination,200-9,40.756893,-73.834158,,TESLA,Public,,,,
114940,ELEC,Sylvan Pinnacle Garage - Tesla Destination,Forest Hills,NY,,4.0,,Tesla Destination,200-9,40.726421,-73.851406,,TESLA,Public,,,,
114941,ELEC,"Inn at Lake Joseph, a Select Registry Property - Tesla Destination",Forestburgh,NY,,1.0,,Tesla Destination,200-9,41.589244,-74.713261,,TESLA,Public - Appeler à l'avance,CALL,,,
114943,ELEC,Hampton Inn Garden City - Tesla Destination,Garden City,NY,,3.0,,Tesla Destination,200-9,40.741668,-73.609459,,J1772 TESLA,Public,,,,
114944,ELEC,Tuthilltown Spirits - Tesla Destination,Gardiner,NY,,3.0,,Tesla Destination,200-9,41.687197,-74.175388,,J1772 TESLA,Public,,,,
114945,ELEC,The Garrison and Highlands Country Club - Tesla Destination,Garrison,NY,,2.0,,Tesla Destination,200-8,41.381167,-73.912428,,TESLA,Public,,,,
114946,ELEC,Hawthorne Valley - Tesla Destination,Ghent,NY,,6.0,,Tesla Destination,200-8,42.270437,-73.593885,,J1772 TESLA,Public,,,,
114947,ELEC,Greenporter Hotel - Tesla Destination,Greenport,NY,,1.0,,Tesla Destination,200-9,41.101654,-72.364242,,TESLA,Public,,,,
114948,ELEC,Peppermints Restaurant - Tesla Destination,Henrietta,NY,,3.0,,Tesla Destination,200-9,43.055362,-77.65315,,TESLA,Public,,,,
114949,ELEC,Hudson Valley Rail Trail Depot - Tesla Destination,Highland,NY,,4.0,,Tesla Destination,200-9,41.733972,-73.974846,,J1772 TESLA,Public,,,,
114950,ELEC,Town of Lloyd Municipal Parking Lot - Tesla Destination,Highland,NY,,4.0,,Tesla Destination,200-8,41.720133,-73.964807,,J1772 TESLA,Public,,,,
114951,ELEC,Grape Hollow Farm - Tesla Destination,Holmes,NY,,2.0,,Tesla Destination,200-9,41.548637,-73.692718,,TESLA,Public,,,,
114952,ELEC,Best Western Maple City Inn - Tesla Destination,Hornell,NY,,3.0,,Tesla Destination,200-9,42.32285,-77.662418,,J1772 TESLA,Public,,,,
114953,ELEC,Fairfield Inn & Suites by Marriott Elmira Corning - Tesla Destination,Horseheads,NY,,3.0,,Tesla Destination,200-9,42.15882,-76.85612,,J1772 TESLA,Public,,,,
114954,ELEC,Courtyard by Marriott Elmira Horseheads - Tesla Destination,Horseheads,NY,,3.0,,Tesla Destination,200-8,42.161972,-76.867318,,J1772 TESLA,Public,,,,
114955,ELEC,Hilton Garden Inn Elmira/Corning - Tesla Destination,Horseheads,NY,,2.0,,Tesla Destination,200-8,42.162052,-76.873535,,TESLA,Public,,,,
114956,ELEC,The Wick Hotel - Tesla Destination,Hudson,NY,,3.0,,Tesla Destination,200-9,42.253073,-73.796003,,J1772 TESLA,Public,,,,
114957,ELEC,La Tourelle Hotel & Spa - Tesla Destination,Ithaca,NY,,2.0,,Tesla Destination,200-9,42.401806,-76.502908,,J1772 TESLA,Public - Appeler à l'avance,CALL,,,
114958,ELEC,Hilton Garden Inn - Downtown Ithaca - Tesla Destination,Ithaca,NY,,2.0,,Tesla Destination,200-9,42.440673,-76.497375,,TESLA,Public - Appeler à l'avance,CALL,,,
114959,ELEC,William Henry Miller Inn - Tesla Destination,Ithaca,NY,,1.0,,Tesla Destination,200-9,42.441724,-76.495362,,TESLA,Public,,,,
114960,ELEC,Jamesport Vineyards - Tesla Destination,Jamesport,NY,,4.0,,Tesla Destination,GPS,40.94866517632938,-72.5973012209015,,TESLA,Public,,,,
114961,ELEC,Hampton Inn by Hilton Kingston - Tesla Destination,Kingston,NY,,6.0,,Tesla Destination,200-8,41.970001,-73.989083,,J1772 TESLA,Public - Appeler à l'avance,CALL,,,
114962,ELEC,Courtyard by Marriott Kingston - Tesla Destination,Kingston,NY,,3.0,,Tesla Destination,200-9,41.970145,-73.985923,,J1772 TESLA,Public,,,,
114964,ELEC,Adirondack Mountain Club - Tesla Destination,Lake George,NY,,2.0,,Tesla Destination,200-8,43.400634,-73.716573,,J1772 TESLA,Public,,,,
114965,ELEC,Best Western Adirondack Inn - Tesla Destination,Lake Placid,NY,,3.0,,Tesla Destination,200-9,44.284065,-73.983532,,J1772 TESLA,Public,,,,
114966,ELEC,The Whiteface Lodge - Tesla Destination,Lake Placid,NY,,3.0,,Tesla Destination,200-9,44.297026,-74.010764,,J1772 TESLA,Public - Appeler à l'avance,CALL,,,
114967,ELEC,AAA Latham - Tesla Destination,Latham,NY,,2.0,,Tesla Destination,200-9,42.728097,-73.759578,,J1772 TESLA,Public,,,,
114968,ELEC,MPG 1-50 51st Ave - Tesla Destination,Long Island City,NY,,4.0,,Tesla Destination,200-9,40.742713,-73.959323,,TESLA,Public,,,,
114969,ELEC,iPark 43-25 Hunter Street - Tesla Destination,Long Island City,NY,,8.0,,Tesla Destination,200-9,40.747653,-73.942313,,TESLA,Public,,,,
114970,ELEC,Little Man Parking (Queens West) - Tesla Destination,Long Island City,NY,,3.0,,Tesla Destination,200-8,40.74581,-73.955812,,J1772 TESLA,Public,,,,
114971,ELEC,Red Roof Inn Malone - Tesla Destination,Malone,NY,,2.0,,Tesla Destination,200-9,44.847758,-74.300297,,J1772 TESLA,Public,,,,
114972,ELEC,Icon Parking 235 W 48th - Tesla Destination,Manhattan,NY,,4.0,,Tesla Destination,200-9,40.760856,-73.986218,,TESLA,Public,,,,
114973,ELEC,Icon Parking 360 E 65th - Tesla Destination,Manhattan,NY,,4.0,,Tesla Destination,200-8,40.763564,-73.960236,,TESLA,Public,,,,
114974,ELEC,Icon Parking 205 E 63rd St - Tesla Destination,Manhattan,NY,,2.0,,Tesla Destination,200-8,40.764174,-73.964533,,TESLA,Public,,,,
114975,ELEC,Clemson Bros Brewery - Tesla Destination,Middletown,NY,,3.0,,Tesla Destination,200-9,41.446952,-74.415608,,TESLA,Public,,,,
114976,ELEC,Home2 Suites by Hilton Middletown - Tesla Destination,Middletown,NY,,3.0,,Tesla Destination,200-9,41.462968,-74.368183,,J1772 TESLA,Public,,,,
114977,ELEC,Buttermilk Falls Inn & Spa - Tesla Destination,Milton,NY,,3.0,,Tesla Destination,200-9,41.666684,-73.955378,,J1772 TESLA,Public,,,,
114978,ELEC,SunPower by New York State Solar Farm - Tesla Destination,Modena,NY,,5.0,,Tesla Destination,200-9,41.667875,-74.105849,,TESLA,Public,,,,
114979,ELEC,Gurney's Montauk Resort & Spa - Tesla Destination,Montauk,NY,,3.0,,Tesla Destination,200-9,41.015489,-71.992316,,J1772 TESLA,Public,,,,
114980,ELEC,Montauk Yacht Club Resort & Marina - Tesla Destination,Montauk,NY,,2.0,,Tesla Destination,200-9,41.069404,-71.932673,,TESLA,Public,,,,
114981,ELEC,Borland House Bed and Breakfast - Tesla Destination,Montgomery,NY,,2.0,,Tesla Destination,200-9,41.52688,-74.235988,,J1772 TESLA,Public,,,,
114982,ELEC,Hampton Inn New Paltz - Tesla Destination,New Paltz,NY,,4.0,,Tesla Destination,200-9,41.740795,-74.067127,,J1772 TESLA,Public,,,,
114983,ELEC,MPG 10 E 102nd Street - Tesla Destination,New York,NY,,3.0,,Tesla Destination,200-9,40.791232,-73.95237,,J1772 TESLA,Public,,,,
114984,ELEC,Rapidpark 10 E 30th Street - Tesla Destination,New York,NY,,3.0,,Tesla Destination,200-9,40.745384,-73.985704,,J1772 TESLA,Public,,,,
114985,ELEC,Icon Parking 1056 5th Avenue - Tesla Destination,New York,NY,,3.0,,Tesla Destination,GPS,40.782031,-73.959484,,J1772 TESLA,Public,,,,
114986,ELEC,iPark 10 West 15th - Tesla Destination,New York,NY,,3.0,,Tesla Destination,200-8,40.736754,-73.993789,,J1772 TESLA,Public,,,,
114987,ELEC,GGMC Parking 10 W 66th St Garage - Tesla Destination,New York,NY,,2.0,,Tesla Destination,200-8,40.772308,-73.978966,,TESLA,Public,,,,
114988,ELEC,GGMC Parking Union Square Parking Garage - Tesla Destination,New York,NY,,6.0,,Tesla Destination,200-8,40.734817,-73.989198,,J1772 TESLA,Public,,,,
114989,ELEC,Icon Parking 100 Riverside Blvd. - Tesla Destination,New York,NY,,3.0,,Tesla Destination,200-9,40.775704,-73.989483,,J1772 TESLA,Public,,,,
114990,ELEC,Rapidpark 600 Columbus Ave - Tesla Destination,New York,NY,,3.0,,Tesla Destination,200-9,40.788305,-73.971353,,J1772 TESLA,Public,,,,
114991,ELEC,Champion Parking E 16th Street - Tesla Destination,New York,NY,,3.0,,Tesla Destination,200-8,40.736116,-73.989322,,J1772 TESLA,Public,,,,
114992,ELEC,Icon Parking 101 W 15th - Tesla Destination,New York,NY,,4.0,,Tesla Destination,200-8,40.738352,-73.996519,,TESLA,Public,,,,
114993,ELEC,iPark NYC 88th Street Garage - Tesla Destination,New York,NY,,3.0,,Tesla Destination,200-8,40.787976,-73.971145,,J1772 TESLA,Public,,,,
114994,ELEC,Icon Parking 101 West End Ave - Tesla Destination,New York,NY,,3.0,,Tesla Destination,200-9,40.775188,-73.988501,,J1772 TESLA,Public,,,,
114995,ELEC,ABM Parking 475 Park Ave South LLC - Tesla Destination,New York,NY,,2.0,,Tesla Destination,200-8,40.745497,-73.98208,,TESLA,Public,,,,
114996,ELEC,Rapidpark 99 Park Ave - Tesla Destination,New York,NY,,3.0,,Tesla Destination,200-8,40.750254,-73.978627,,J1772 TESLA,Public,,,,
114997,ELEC,iPark 107 West 13th Street - Tesla Destination,New York,NY,,3.0,,Tesla Destination,200-9,40.737094,-73.997754,,J1772 TESLA,Public,,,,
114998,ELEC,Icon Parking 11 5th Ave - Tesla Destination,New York,NY,,3.0,,Tesla Destination,200-8,40.732257,-73.99608,,J1772 TESLA,Public,,,,
114999,ELEC,iPark NYC 1025 83rd - Tesla Destination,New York,NY,,3.0,,Tesla Destination,200-8,40.779468,-73.961086,,J1772 TESLA,Public,,,,
115000,ELEC,GMC 111 E 82nd St - Tesla Destination,New York,NY,,3.0,,Tesla Destination,200-8,40.777545,-73.958471,,J1772 TESLA,Public,,,,
115001,ELEC,iPark 112 E 65th Street - Tesla Destination,New York,NY,,3.0,,Tesla Destination,200-8,40.766174,-73.966419,,J1772 TESLA,Public,,,,
115002,ELEC,Quik Park 1133 Garage LLC - Tesla Destination,New York,NY,,3.0,,Tesla Destination,200-9,40.756071,-73.98392,,J1772 TESLA,Public,,,,
115003,ELEC,iPark 1510 Lex Garage Corp. - Tesla Destination,New York,NY,,3.0,,Tesla Destination,200-9,40.787343,-73.951003,,TESLA,Public,,,,
115004,ELEC,ABM Parking 750 Lexington Ave LLC - Tesla Destination,New York,NY,,3.0,,Tesla Destination,200-9,40.762806,-73.9687,,TESLA,Public,,,,
115005,ELEC,Icon Parking 12 East 9th Street - Tesla Destination,New York,NY,,3.0,,Tesla Destination,200-8,40.732324,-73.99517,,J1772 TESLA,Public,,,,
115006,ELEC,MPG 121 Reade Street - Tesla Destination,New York,NY,,3.0,,Tesla Destination,200-9,40.716208,-74.009488,,J1772 TESLA,Public,,,,
115007,ELEC,GMC Parking Narragansett - Tesla Destination,New York,NY,,3.0,,Tesla Destination,200-9,40.764767,-73.967021,,J1772 TESLA,Public,,,,
115008,ELEC,Rapidpark 124 W 20th Street - Tesla Destination,New York,NY,,3.0,,Tesla Destination,200-9,40.741371,-73.995533,,J1772 TESLA,Public,,,,
115009,ELEC,Quik Park Garden Lots LLC - Tesla Destination,New York,NY,,3.0,,Tesla Destination,200-9,40.748789,-73.989915,,J1772 TESLA,Public,,,,
115010,ELEC,ABM Parking 13 East 54th Street LLC - Tesla Destination,New York,NY,,2.0,,Tesla Destination,200-8,40.761051,-73.974877,,TESLA,Public,,,,
115011,ELEC,New York Hilton Midtown - Tesla Destination,New York,NY,,4.0,,Tesla Destination,200-9,40.762445,-73.97971,,J1772 TESLA,Public,,,,
115012,ELEC,1345 Parking Garage - Tesla Destination,New York,NY,,3.0,,Tesla Destination,GPS,40.76351,-73.979364,,J1772 TESLA,Public,,,,
115013,ELEC,Icon Parking 1350 Avenue of the Americas - Tesla Destination,New York,NY,,3.0,,Tesla Destination,200-9,40.762653,-73.977846,,J1772 TESLA,Public,,,,
115014,ELEC,Icon Parking 14-26 William Street - Tesla Destination,New York,NY,,3.0,,Tesla Destination,200-8,40.704976,-74.009682,,J1772 TESLA,Public,,,,
115015,ELEC,Icon Parking OMNI - Tesla Destination,New York,NY,,3.0,,Tesla Destination,200-8,40.775545,-73.9818,,J1772 TESLA,Public,,,,
115016,ELEC,Rapidpark 148 E 33rd Street - Tesla Destination,New York,NY,,3.0,,Tesla Destination,200-9,40.745236,-73.979736,,J1772 TESLA,Public - Appeler à l'avance,CALL,,,
115017,ELEC,Rapidpark 15 W 72nd Street - Tesla Destination,New York,NY,,3.0,,Tesla Destination,200-9,40.777008,-73.97689,,J1772 TESLA,Public,,,,
115018,ELEC,Icon Parking 150 Charles Street - Tesla Destination,New York,NY,,3.0,,Tesla Destination,200-9,40.733633,-74.009239,,J1772 TESLA,Public,,,,
115019,ELEC,Icon Parking 150 E 58th Street - Tesla Destination,New York,NY,,3.0,,Tesla Destination,200-9,40.76161,-73.96775,,J1772 TESLA,Public,,,,
115020,ELEC,Rapidpark 150 East 77th Street - Tesla Destination,New York,NY,,3.0,,Tesla Destination,200-8,40.773472,-73.95992,,J1772 TESLA,Public,,,,
115021,ELEC,Standard Parking 151 W 17th Street - Tesla Destination,New York,NY,,3.0,,Tesla Destination,200-9,40.740728,-73.997493,,J1772 TESLA,Public,,,,
115022,ELEC,Icon Parking 155 E 29th Street - Tesla Destination,New York,NY,,3.0,,Tesla Destination,200-9,40.742968,-73.980565,,J1772 TESLA,Public,,,,
115023,ELEC,City Parking Garment One Garage - Tesla Destination,New York,NY,,3.0,,Tesla Destination,200-9,40.7462,-73.978528,,J1772 TESLA,Public,,,,
115024,ELEC,Prime Parking Systems - 155 E 68th Street - Tesla Destination,New York,NY,,3.0,,Tesla Destination,200-8,40.768032,-73.963983,,J1772 TESLA,Public,,,,
115025,ELEC,Champion Parking W 53rd Street - Tesla Destination,New York,NY,,3.0,,Tesla Destination,200-9,40.763,-73.981278,,J1772 TESLA,Public,,,,
115026,ELEC,Icon Parking 16 W 16th Street - Tesla Destination,New York,NY,,3.0,,Tesla Destination,200-8,40.737595,-73.993837,,J1772 TESLA,Public,,,,
115027,ELEC,GGMC Parking Alfred - Tesla Destination,New York,NY,,3.0,,Tesla Destination,200-9,40.771561,-73.985834,,J1772 TESLA,Public,,,,
115028,ELEC,iPark NYC E 77th Street - Tesla Destination,New York,NY,,3.0,,Tesla Destination,200-8,40.77364,-73.959302,,J1772 TESLA,Public,,,,
115029,ELEC,Parkright 169 Ludlow Street - Tesla Destination,New York,NY,,3.0,,Tesla Destination,200-9,40.721724,-73.987776,,J1772 TESLA,Public,,,,
115030,ELEC,Icon Parking 169 W 95th Street - Tesla Destination,New York,NY,,3.0,,Tesla Destination,200-9,40.793528,-73.97024,,J1772 TESLA,Public,,,,
115031,ELEC,Residence Inn New York Manhattan - Tesla Destination,New York,NY,,2.0,,Tesla Destination,200-9,40.764369,-73.982707,,J1772 TESLA,Public,,,,
115032,ELEC,Quikpark 173 W 12th Street - Tesla Destination,New York,NY,,3.0,,Tesla Destination,200-8,40.7372,-74.00007,,J1772 TESLA,Public,,,,
115033,ELEC,Quik Park Hudson 180 LLC - Tesla Destination,New York,NY,,3.0,,Tesla Destination,200-9,40.778397,-73.987899,,J1772 TESLA,Public,,,,
115034,ELEC,iPark NYC 183 E 73rd Street - Tesla Destination,New York,NY,,3.0,,Tesla Destination,200-8,40.770442,-73.960649,,J1772 TESLA,Public,,,,
115035,ELEC,Icon Parking 240 East Broadway - Tesla Destination,New York,NY,,3.0,,Tesla Destination,200-8,40.715074,-73.986927,,J1772 TESLA,Public,,,,
115036,ELEC,Glenwood Grand Tier Parking - Tesla Destination,New York,NY,,2.0,,Tesla Destination,200-9,40.772436,-73.981695,,TESLA,Public,,,,
115037,ELEC,Standard Parking 20 W 13th Street - Tesla Destination,New York,NY,,3.0,,Tesla Destination,200-8,40.735594,-73.995291,,J1772 TESLA,Public,,,,
115038,ELEC,Central Parking 200 Chambers - Tesla Destination,New York,NY,,3.0,,Tesla Destination,200-9,40.716579,-74.012393,,J1772 TESLA,Public,,,,
115039,ELEC,Icon Parking 200 E 32nd Street - Tesla Destination,New York,NY,,3.0,,Tesla Destination,200-9,40.744029,-73.978952,,J1772 TESLA,Public,,,,
115040,ELEC,Icon Parking 200 E 65th Street - Tesla Destination,New York,NY,,3.0,,Tesla Destination,200-9,40.764777,-73.963555,,J1772 TESLA,Public,,,,
115041,ELEC,Enterprise Parking 200 E 69th St - Tesla Destination,New York,NY,,2.0,,Tesla Destination,200-9,40.767289,-73.961762,,TESLA,Public,,,,
115042,ELEC,iPark 200 E 70th Street - Tesla Destination,New York,NY,,3.0,,Tesla Destination,200-8,40.768244,-73.961621,,J1772 TESLA,Public,,,,
115043,ELEC,iPark NYC The Carnegie Garage - Tesla Destination,New York,NY,,3.0,,Tesla Destination,200-9,40.783355,-73.949998,,J1772 TESLA,Public,,,,
115044,ELEC,GMC Copley Parking - Tesla Destination,New York,NY,,3.0,,Tesla Destination,200-9,40.775496,-73.981552,,TESLA,Public,,,,
115045,ELEC,MPG 201 E 56th - Tesla Destination,New York,NY,,3.0,,Tesla Destination,200-8,40.759764,-73.967956,,J1772 TESLA,Public,,,,
115046,ELEC,Icon Parking 203 E 61 Street - Tesla Destination,New York,NY,,3.0,,Tesla Destination,200-8,40.762948,-73.965513,,J1772 TESLA,Public,,,,
115047,ELEC,Rapidpark 204 W 101st Street - Tesla Destination,New York,NY,,3.0,,Tesla Destination,200-9,40.797283,-73.968766,,J1772 TESLA,Public,,,,
115048,ELEC,Champion Parking W 76th Street - Tesla Destination,New York,NY,,3.0,,Tesla Destination,200-9,40.78168,-73.97994,,J1772 TESLA,Public,,,,
115049,ELEC,Icon Parking 810 Seventh Ave - Tesla Destination,New York,NY,,3.0,,Tesla Destination,200-8,40.762891,-73.983151,,J1772 TESLA,Public,,,,
115050,ELEC,Standard Parking 21 East 15th Street - Tesla Destination,New York,NY,,3.0,,Tesla Destination,200-8,40.73644,-73.992027,,J1772 TESLA,Public,,,,
115051,ELEC,Rapidpark 210 W 102nd Street - Tesla Destination,New York,NY,,3.0,,Tesla Destination,200-9,40.797961,-73.968389,,J1772 TESLA,Public,,,,
115052,ELEC,Champion Parking 74 LLC - Tesla Destination,New York,NY,,3.0,,Tesla Destination,200-9,40.780143,-73.98221,,J1772 TESLA,Public,,,,
115053,ELEC,GGMC Parking Seven Eleven (Located at 217 E 44th St) - Tesla Destination,New York,NY,,3.0,,Tesla Destination,200-8,40.752004,-73.972808,,J1772 TESLA,Public,,,,
115054,ELEC,Icon Parking 220 Riverside Blvd - Tesla Destination,New York,NY,,6.0,,Tesla Destination,200-9,40.77975,-73.987272,,J1772 TESLA,Public,,,,
115055,ELEC,iPark 200 West Garage Corp. - Tesla Destination,New York,NY,,3.0,,Tesla Destination,200-9,40.746142,-73.995221,,J1772 TESLA,Public,,,,
115056,ELEC,Parkit 221 Thompson Street - Tesla Destination,New York,NY,,3.0,,Tesla Destination,200-9,40.729372,-73.999217,,J1772 TESLA,Public,,,,
115058,ELEC,Icon Parking 225 W 83 Street - Tesla Destination,New York,NY,,3.0,,Tesla Destination,200-9,40.786371,-73.977357,,J1772 TESLA,Public,,,,
115059,ELEC,Quik Park Broadway Garage LLC - Tesla Destination,New York,NY,,3.0,,Tesla Destination,200-8,40.765735,-73.982101,,J1772 TESLA,Public,,,,
115060,ELEC,GGMC Yorkville Car Park - Tesla Destination,New York,NY,,3.0,,Tesla Destination,200-8,40.782163,-73.95059,,J1772 TESLA,Public,,,,
115061,ELEC,Champion Parking 230 W 55th Street - Tesla Destination,New York,NY,,3.0,,Tesla Destination,200-9,40.764693,-73.982708,,J1772 TESLA,Public,,,,
115062,ELEC,Icon Parking 237 West Thames - Tesla Destination,New York,NY,,3.0,,Tesla Destination,200-8,40.708465,-74.016762,,J1772 TESLA,Public,,,,
115063,ELEC,Icon 299 Peal Street Seaport Parking - Tesla Destination,New York,NY,,3.0,,Tesla Destination,200-8,40.70736,-74.004989,,J1772 TESLA,Public,,,,
115065,ELEC,iPark 245 East 63rd Street - Tesla Destination,New York,NY,,3.0,,Tesla Destination,200-8,40.763562,-73.963079,,J1772 TESLA,Public,,,,
115066,ELEC,GGMC Ruppert Car Park - Tesla Destination,New York,NY,,3.0,,Tesla Destination,200-8,40.780918,-73.950526,,J1772 TESLA,Public,,,,
115067,ELEC,iPark NYC 246 E 45 Street - Tesla Destination,New York,NY,,3.0,,Tesla Destination,200-8,40.751676,-73.971144,,J1772 TESLA,Public,,,,
115068,ELEC,iPark NYC 250 West Parking - Tesla Destination,New York,NY,,3.0,,Tesla Destination,200-8,40.742179,-73.999226,,J1772 TESLA,Public,,,,
115069,ELEC,Quik Park Columbia Garage LLC - Tesla Destination,New York,NY,,3.0,,Tesla Destination,200-8,40.795279,-73.971688,,J1772 TESLA,Public,,,,
115070,ELEC,Quik Park 40 Riverside Blvd - Tesla Destination,New York,NY,,3.0,,Tesla Destination,200-8,40.773464,-73.989532,,J1772 TESLA,Public,,,,
115071,ELEC,Rapidpark 25-27 Beekman Street - Tesla Destination,New York,NY,,3.0,,Tesla Destination,200-9,40.710628,-74.006186,,J1772 TESLA,Public,,,,
115072,ELEC,Rapidpark 254 W 79th Street - Tesla Destination,New York,NY,,3.0,,Tesla Destination,200-8,40.78386,-73.980521,,J1772 TESLA,Public,,,,
115073,ELEC,MPG 266 E 97 St - Tesla Destination,New York,NY,,3.0,,Tesla Destination,200-8,40.784771,-73.946728,,J1772 TESLA,Public,,,,
115074,ELEC,Parkit 27 N Moore Street - Tesla Destination,New York,NY,,3.0,,Tesla Destination,200-9,40.720215,-74.007465,,J1772 TESLA,Public,,,,
115075,ELEC,iPark 455 Central Park West - Tesla Destination,New York,NY,,3.0,,Tesla Destination,200-8,40.797875,-73.961228,,J1772 TESLA,Public,,,,
115076,ELEC,Standard Parking 270 Greenwich - Tesla Destination,New York,NY,,3.0,,Tesla Destination,200-9,40.715543,-74.011435,,J1772 TESLA,Public,,,,
115077,ELEC,Icon Parking 279 East 65th Street - Tesla Destination,New York,NY,,3.0,,Tesla Destination,200-8,40.764758,-73.962042,,J1772 TESLA,Public,,,,
115078,ELEC,ABM Parking Services 285 W 50th Street LLC - Tesla Destination,New York,NY,,3.0,,Tesla Destination,200-8,40.762337,-73.985727,,J1772 TESLA,Public,,,,
115079,ELEC,Parkright 39 E 29th Street - Tesla Destination,New York,NY,,3.0,,Tesla Destination,200-8,40.744551,-73.984535,,J1772 TESLA,Public,,,,
115080,ELEC,iPark 3 E 67th Street - Tesla Destination,New York,NY,,3.0,,Tesla Destination,200-8,40.769386,-73.969137,,J1772 TESLA,Public,,,,
115081,ELEC,Icon Parking 30 W 63rd St - Tesla Destination,New York,NY,,2.0,,Tesla Destination,200-9,40.770769,-73.981573,,TESLA,Public,,,,
115082,ELEC,GGMC Parking Connaught - Tesla Destination,New York,NY,,3.0,,Tesla Destination,200-9,40.756956,-73.966399,,J1772 TESLA,Public,,,,
115083,ELEC,Icon Parking 300 E 59th Street - Tesla Destination,New York,NY,,3.0,,Tesla Destination,200-8,40.760421,-73.964418,,J1772 TESLA,Public,,,,
115084,ELEC,GGMC Parking E 74th Street - Tesla Destination,New York,NY,,3.0,,Tesla Destination,200-8,40.769925,-73.957476,,J1772 TESLA,Public,,,,
115085,ELEC,Parkright 300 E 77th St - Tesla Destination,New York,NY,,3.0,,Tesla Destination,200-9,40.771689,-73.955816,,J1772 TESLA,Public,,,,
115086,ELEC,Icon Parking 301 E 57 Street - Tesla Destination,New York,NY,,3.0,,Tesla Destination,200-8,40.759484,-73.965206,,J1772 TESLA,Public,,,,
115087,ELEC,Parkit 301 E 64th - Tesla Destination,New York,NY,,3.0,,Tesla Destination,200-8,40.76389,-73.961892,,J1772 TESLA,Public,,,,
115088,ELEC,Icon Parking 308 Greenwich - Tesla Destination,New York,NY,,3.0,,Tesla Destination,200-9,40.717568,-74.011042,,J1772 TESLA,Public,,,,
115089,ELEC,Parkit 310 E 11th Street - Tesla Destination,New York,NY,,3.0,,Tesla Destination,200-9,40.729871,-73.98568,,J1772 TESLA,Public,,,,
115090,ELEC,Waldorf Astoria New York - Tesla Destination,New York,NY,,2.0,,Tesla Destination,200-8,40.757047,-73.974455,,TESLA,Public,,,,
115091,ELEC,Quik Park 311 West Broadway LLC - Tesla Destination,New York,NY,,2.0,,Tesla Destination,200-9,40.721638,-74.003781,,TESLA,Public,,,,
115092,ELEC,Icon Parking 322 23rd Street - Tesla Destination,New York,NY,,3.0,,Tesla Destination,200-8,40.737362,-73.980167,,J1772 TESLA,Public,,,,
115093,ELEC,Quik Park 32 Debrosses LLC - Tesla Destination,New York,NY,,3.0,,Tesla Destination,200-8,40.723702,-74.010335,,J1772 TESLA,Public,,,,
115094,ELEC,Glenwood Belmont Parking - Tesla Destination,New York,NY,,2.0,,Tesla Destination,200-8,40.751784,-73.969463,,J1772 TESLA,Public,,,,
115095,ELEC,Champion Parking W 57th Street - Tesla Destination,New York,NY,,3.0,,Tesla Destination,200-9,40.767194,-73.984544,,J1772 TESLA,Public,,,,
115096,ELEC,GGMC Parking 8 E 33rd St Garage - Tesla Destination,New York,NY,,3.0,,Tesla Destination,200-9,40.74733,-73.984857,,J1772 TESLA,Public,,,,
115097,ELEC,Icon Parking E 48th Street - Tesla Destination,New York,NY,,3.0,,Tesla Destination,200-8,40.75323,-73.96799,,J1772 TESLA,Public,,,,
115098,ELEC,Icon Parking 330 E 39th Street - Tesla Destination,New York,NY,,3.0,,Tesla Destination,200-9,40.747123,-73.972257,,J1772 TESLA,Public,,,,
115099,ELEC,Icon Parking 330 W 58th Street - Tesla Destination,New York,NY,,3.0,,Tesla Destination,200-8,40.767725,-73.983646,,J1772 TESLA,Public,,,,
115100,ELEC,Apple Parking 332 W 11th Street - Tesla Destination,New York,NY,,3.0,,Tesla Destination,200-9,40.735404,-74.007717,,TESLA,Public - Appeler à l'avance,CALL,,,
115101,ELEC,iPark NYC 333 E 38th NYU - Tesla Destination,New York,NY,,3.0,,Tesla Destination,200-8,40.746891,-73.972547,,J1772 TESLA,Public,,,,
115102,ELEC,Standard Parking Gateway Plaza Garage - Tesla Destination,New York,NY,,3.0,,Tesla Destination,200-8,40.710652,-74.016396,,J1772 TESLA,Public,,,,
115103,ELEC,MPG 340 East 93rd - Tesla Destination,New York,NY,,3.0,,Tesla Destination,200-8,40.781375,-73.946721,,J1772 TESLA,Public,,,,
115104,ELEC,Rapidpark 340 94th Street - Tesla Destination,New York,NY,,3.0,,Tesla Destination,200-8,40.781961,-73.946209,,J1772 TESLA,Public - Appeler à l'avance,CALL,,,
115105,ELEC,iPark NYC 345 East Garage - Tesla Destination,New York,NY,,3.0,,Tesla Destination,200-9,40.773471,-73.952304,,J1772 TESLA,Public,,,,
115106,ELEC,Rapidpark 35 E 75th Street - Tesla Destination,New York,NY,,3.0,,Tesla Destination,200-8,40.773815,-73.963696,,J1772 TESLA,Public,,,,
115107,ELEC,"The Carlyle Hotel, A Rosewood Hotel - Tesla Destination",New York,NY,,2.0,,Tesla Destination,200-9,40.774308,-73.963182,,J1772 TESLA,Public,,,,
115108,ELEC,Quik Park 82nd Street LLC - Tesla Destination,New York,NY,,3.0,,Tesla Destination,200-9,40.774316,-73.951909,,J1772 TESLA,Public,,,,
115109,ELEC,GGMC Parking 350 W 43rd Street Garage - Tesla Destination,New York,NY,,3.0,,Tesla Destination,200-9,40.758503,-73.991285,,J1772 TESLA,Public,,,,
115110,ELEC,Rapidpark 351 East 83rd - Tesla Destination,New York,NY,,3.0,,Tesla Destination,200-8,40.775208,-73.950978,,J1772 TESLA,Public,,,,
115111,ELEC,Icon Parking 35-39 East 61st Street - Tesla Destination,New York,NY,,3.0,,Tesla Destination,200-8,40.764876,-73.970102,,J1772 TESLA,Public,,,,
115112,ELEC,Icon 376 Greenwich Street - Tesla Destination,New York,NY,,3.0,,Tesla Destination,200-8,40.719814,-74.010394,,J1772 TESLA,Public,,,,
115113,ELEC,iPark NYU 377 E 33rd Street - Tesla Destination,New York,NY,,3.0,,Tesla Destination,200-9,40.743382,-73.974251,,J1772 TESLA,Public,,,,
115114,ELEC,Icon Parking 111 8th Ave Parking - Tesla Destination,New York,NY,,4.0,,Tesla Destination,200-8,40.741669,-74.004397,,TESLA,Public,,,,
115115,ELEC,iPark 386 E 48th Street - Tesla Destination,New York,NY,,3.0,,Tesla Destination,200-8,40.751772,-73.964999,,J1772 TESLA,Public,,,,
115116,ELEC,Icon Parking Wall Park - Tesla Destination,New York,NY,,3.0,,Tesla Destination,200-8,40.706109,-74.010148,,J1772 TESLA,Public,,,,
115117,ELEC,GGMC Parking Carnegie Garage - Tesla Destination,New York,NY,,3.0,,Tesla Destination,200-9,40.785524,-73.95496,,J1772 TESLA,Public,,,,
115118,ELEC,City Parking RL Mercer Street - Tesla Destination,New York,NY,,3.0,,Tesla Destination,200-9,40.721244,-74.00092,,J1772 TESLA,Public,,,,
115119,ELEC,Icon Parking 40 W 26th Street - Tesla Destination,New York,NY,,3.0,,Tesla Destination,200-8,40.743961,-73.989912,,J1772 TESLA,Public - Appeler à l'avance,CALL,,,
115120,ELEC,iPark NYC 400 E 35th NYU - Tesla Destination,New York,NY,,3.0,,Tesla Destination,200-8,40.744093,-73.972689,,J1772 TESLA,Public,,,,
115121,ELEC,Icon Liberty View Parking - Tesla Destination,New York,NY,,3.0,,Tesla Destination,GPS,40.716079,-74.015929,,J1772 TESLA,Public,,,,
115122,ELEC,Champion Parking 113 LLC - Tesla Destination,New York,NY,,3.0,,Tesla Destination,200-9,40.804007,-73.960887,,J1772 TESLA,Public,,,,
115123,ELEC,Propark 401 W 110th Street - Tesla Destination,New York,NY,,3.0,,Tesla Destination,200-9,40.802368,-73.961689,,J1772 TESLA,Public,,,,
115124,ELEC,Parkit 403 Lafayette St. - Tesla Destination,New York,NY,,3.0,,Tesla Destination,200-9,40.728137,-73.992393,,J1772 TESLA,Public,,,,
115125,ELEC,iPark 41 E 85th Street - Tesla Destination,New York,NY,,3.0,,Tesla Destination,200-8,40.780305,-73.959091,,J1772 TESLA,Public,,,,
115126,ELEC,Rapidpark 411 W 55th Street - Tesla Destination,New York,NY,,3.0,,Tesla Destination,200-9,40.767111,-73.987232,,J1772 TESLA,Public,,,,
115127,ELEC,GGMC Parking 415 E 79th - Tesla Destination,New York,NY,,3.0,,Tesla Destination,200-8,40.772197,-73.95183,,J1772 TESLA,Public,,,,
115128,ELEC,Icon Parking Sutton 53 - Tesla Destination,New York,NY,,3.0,,Tesla Destination,200-8,40.755371,-73.963368,,J1772 TESLA,Public,,,,
115129,ELEC,Icon Parking Independent - Tesla Destination,New York,NY,,3.0,,Tesla Destination,200-8,40.766976,-73.955645,,J1772 TESLA,Public,,,,
115130,ELEC,GMC Parking 420 E 53rd - Tesla Destination,New York,NY,,1.0,,Tesla Destination,200-8,40.755013,-73.963549,,TESLA,Public,,,,
115131,ELEC,Sutton Place North Garage - Tesla Destination,New York,NY,,2.0,,Tesla Destination,200-9,40.755679,-73.963528,,TESLA,Public,,,,
115132,ELEC,imPark 422 E 79th Street - Tesla Destination,New York,NY,,3.0,,Tesla Destination,200-8,40.771766,-73.951838,,J1772 TESLA,Public,,,,
115133,ELEC,Quik Park West 23rd Street Garage LLC - Tesla Destination,New York,NY,,3.0,,Tesla Destination,200-8,40.746762,-74.001428,,J1772 TESLA,Public,,,,
115134,ELEC,iPark NYC 425 E 58th Street - Tesla Destination,New York,NY,,3.0,,Tesla Destination,200-8,40.758766,-73.961406,,J1772 TESLA,Public,,,,
115135,ELEC,City Parking E 61st Street - Tesla Destination,New York,NY,,3.0,,Tesla Destination,200-9,40.760522,-73.959278,,J1772 TESLA,Public,,,,
115136,ELEC,ABM Parking 866 UN Plaza - Tesla Destination,New York,NY,,3.0,,Tesla Destination,200-8,40.752516,-73.965347,,J1772 TESLA,Public,,,,
115137,ELEC,Quikpark 43-08 Crescent Street - Tesla Destination,New York,NY,,3.0,,Tesla Destination,200-8,40.748762,-73.942538,,J1772 TESLA,Public,,,,
115138,ELEC,iPark NYC 44 Elizabeth Street - Tesla Destination,New York,NY,,3.0,,Tesla Destination,200-9,40.716947,-73.996472,,J1772 TESLA,Public,,,,
115139,ELEC,Quik Park 86th St. LLC - Tesla Destination,New York,NY,,3.0,,Tesla Destination,200-8,40.775975,-73.947732,,J1772 TESLA,Public,,,,
115140,ELEC,Rapidpark 480 Riverside (120th St) - Tesla Destination,New York,NY,,3.0,,Tesla Destination,200-8,40.811206,-73.963782,,J1772 TESLA,Public,,,,
115141,ELEC,iPark NYC Central Harlem Garage Corp. - Tesla Destination,New York,NY,,3.0,,Tesla Destination,200-8,40.801497,-73.94792,,J1772 TESLA,Public,,,,
115142,ELEC,Icon Parking 5 E 22nd Street - Tesla Destination,New York,NY,,3.0,,Tesla Destination,200-9,40.740794,-73.988885,,J1772 TESLA,Public,,,,
115143,ELEC,GGMC Parking Battery Place - Tesla Destination,New York,NY,,3.0,,Tesla Destination,200-9,40.706643,-74.018095,,J1772 TESLA,Public,,,,
115144,ELEC,GGMC Parking 50 E 79th St Garage - Tesla Destination,New York,NY,,2.0,,Tesla Destination,200-9,40.775932,-73.961937,,TESLA,Public,,,,
115145,ELEC,MPG 500 West 30th - Tesla Destination,New York,NY,,3.0,,Tesla Destination,200-9,40.751987,-74.001701,,J1772 TESLA,Public,,,,
115146,ELEC,Roger Smith Hotel - Tesla Destination,New York,NY,,1.0,,Tesla Destination,200-9,40.754735,-73.973361,,TESLA,Public,,,,
115147,ELEC,Icon Parking 51 W 22nd - Tesla Destination,New York,NY,,3.0,,Tesla Destination,200-9,40.742197,-73.992168,,J1772 TESLA,Public,,,,
115149,ELEC,Icon Parking 524 East 73rd - Tesla Destination,New York,NY,,3.0,,Tesla Destination,200-9,40.766741,-73.95193,,J1772 TESLA,Public,,,,
115150,ELEC,GGMC Parking 51-53 E 76th St Carlyle Hotel - Tesla Destination,New York,NY,,2.0,,Tesla Destination,200-8,40.774265,-73.96278,,J1772 TESLA,Public,,,,
115151,ELEC,iPark 530 E 80th Street - Tesla Destination,New York,NY,,3.0,,Tesla Destination,200-8,40.771136,-73.948252,,J1772 TESLA,Public,,,,
115152,ELEC,MPG 530 West 30th - Tesla Destination,New York,NY,,3.0,,Tesla Destination,200-9,40.752558,-74.002736,,J1772 TESLA,Public,,,,
115153,ELEC,Icon Parking E 88th Street - Tesla Destination,New York,NY,,3.0,,Tesla Destination,200-8,40.776302,-73.944521,,J1772 TESLA,Public,,,,
115154,ELEC,Icon Parking 54 Murray Street - Tesla Destination,New York,NY,,3.0,,Tesla Destination,200-9,40.714121,-74.009808,,J1772 TESLA,Public,,,,
115155,ELEC,Standard Parking 800 6th Ave - Tesla Destination,New York,NY,,3.0,,Tesla Destination,200-8,40.745449,-73.989622,,J1772 TESLA,Public - Appeler à l'avance,CALL,,,
115156,ELEC,Loews Regency New York - Tesla Destination,New York,NY,,3.0,,Tesla Destination,200-9,40.764608,-73.969355,,J1772 TESLA,Public,,,,
115157,ELEC,MPG 543 W 110th Street Garage - Tesla Destination,New York,NY,,3.0,,Tesla Destination,200-9,40.804167,-73.965894,,J1772 TESLA,Public,,,,
115158,ELEC,iPark NYC 549 W 23rd Street - Tesla Destination,New York,NY,,3.0,,Tesla Destination,200-9,40.748931,-74.006078,,J1772 TESLA,Public,,,,
115159,ELEC,Icon Parking 55 W 14th Street - Tesla Destination,New York,NY,,3.0,,Tesla Destination,200-9,40.737266,-73.99611,,J1772 TESLA,Public,,,,
115160,ELEC,GGMC Parking - 550 W 25th - Tesla Destination,New York,NY,,2.0,,Tesla Destination,200-9,40.749666,-74.005485,,J1772 TESLA,Public,,,,
115161,ELEC,iPark Eleventh Avenue Garage Corp. - Tesla Destination,New York,NY,,3.0,,Tesla Destination,200-8,40.752693,-74.002954,,J1772 TESLA,Public,,,,
115162,ELEC,Icon Parking 560 Third Ave - Tesla Destination,New York,NY,,3.0,,Tesla Destination,200-9,40.748094,-73.976864,,J1772 TESLA,Public,,,,
115163,ELEC,Rapidpark 575 1st Avenue - Tesla Destination,New York,NY,,3.0,,Tesla Destination,200-8,40.742761,-73.974554,,J1772 TESLA,Public,,,,
115164,ELEC,Parkit 575 Washington - Tesla Destination,New York,NY,,6.0,,Tesla Destination,200-9,40.729474,-74.008847,,J1772 TESLA,Public,,,,
115165,ELEC,Standard Parking 58 W 58th Street - Tesla Destination,New York,NY,,3.0,,Tesla Destination,200-9,40.764459,-73.976349,,J1772 TESLA,Public,,,,
115166,ELEC,iPark 59-63 Allen Street - Tesla Destination,New York,NY,,3.0,,Tesla Destination,200-9,40.717124,-73.99201,,J1772 TESLA,Public,,,,
115167,ELEC,Champion Parking 90 LLC - Tesla Destination,New York,NY,,3.0,,Tesla Destination,GPS,40.783085,-73.956304,,J1772 TESLA,Public,,,,
115168,ELEC,Champion Parking 60 East End Avenue - Tesla Destination,New York,NY,,3.0,,Tesla Destination,200-9,40.772794,-73.946969,,J1772 TESLA,Public,,,,
115169,ELEC,RapidPark 600 Columbus Ave - Tesla Destination,New York,NY,,3.0,,Tesla Destination,200-9,40.788716,-73.970934,,J1772 TESLA,Public,,,,
115170,ELEC,Quik Park 600 West 42nd Street (Silver Towers) LLC - Tesla Destination,New York,NY,,3.0,,Tesla Destination,200-8,40.760809,-73.998773,,J1772 TESLA,Public,,,,
115171,ELEC,"MTP Parking, The Helena - Tesla Destination",New York,NY,,2.0,,Tesla Destination,200-9,40.770771,-73.991789,,TESLA,Public,,,,
115172,ELEC,Champion Parking 60 E 8th - Tesla Destination,New York,NY,,3.0,,Tesla Destination,200-9,40.730501,-73.993075,,J1772 TESLA,Public,,,,
115173,ELEC,iPark NYC 61 Jane Street - Tesla Destination,New York,NY,,3.0,,Tesla Destination,200-9,40.738222,-74.005908,,J1772 TESLA,Public,,,,
115174,ELEC,Parkit 10 Wooster St. - Tesla Destination,New York,NY,,3.0,,Tesla Destination,200-9,40.721131,-74.00357,,J1772 TESLA,Public,,,,
115175,ELEC,imPark 611 E 83rd Street - Tesla Destination,New York,NY,,3.0,,Tesla Destination,200-8,40.772931,-73.945552,,J1772 TESLA,Public,,,,
115176,ELEC,MTP 625 W 57th Street - Tesla Destination,New York,NY,,3.0,,Tesla Destination,200-9,40.771431,-73.992964,,TESLA,Public,,,,
115177,ELEC,Icon Parking University 10 Parking - Tesla Destination,New York,NY,,3.0,,Tesla Destination,200-9,40.731544,-73.992045,,J1772 TESLA,Public - Appeler à l'avance,CALL,,,
115178,ELEC,Parkright 670 W 43rd Street - Tesla Destination,New York,NY,,3.0,,Tesla Destination,200-8,40.762316,-74.000256,,J1772 TESLA,Public,,,,
115179,ELEC,Quik Park Little West LLC - Tesla Destination,New York,NY,,3.0,,Tesla Destination,200-9,40.706976,-74.016962,,J1772 TESLA,Public,,,,
115180,ELEC,Rapidpark 70 Riverside Dr - Tesla Destination,New York,NY,,2.0,,Tesla Destination,200-9,40.785014,-73.982037,,TESLA,Public,,,,
115181,ELEC,The Peninsula Hotel New York - Tesla Destination,New York,NY,,1.0,,Tesla Destination,200-8,40.76178,-73.975057,,TESLA,Public,,,,
115182,ELEC,Parkright 738 Greenwich Street - Tesla Destination,New York,NY,,3.0,,Tesla Destination,200-9,40.735165,-74.007231,,J1772 TESLA,Public,,,,
115185,ELEC,iPark 650 Parking Corp - Tesla Destination,New York,NY,,3.0,,Tesla Destination,200-8,40.767935,-73.96671,,J1772 TESLA,Public,,,,
115186,ELEC,Icon Parking 70 Gold Street - Tesla Destination,New York,NY,,3.0,,Tesla Destination,200-9,40.709609,-74.004401,,J1772 TESLA,Public,,,,
115187,ELEC,Icon 80 Riverside Blvd - Tesla Destination,New York,NY,,3.0,,Tesla Destination,200-9,40.775054,-73.989946,,J1772 TESLA,Public,,,,
115188,ELEC,Quik Park 808 Garage LLC - Tesla Destination,New York,NY,,3.0,,Tesla Destination,200-9,40.795214,-73.966003,,J1772 TESLA,Public,,,,
115189,ELEC,"The Standard, High Line - Tesla Destination",New York,NY,,3.0,,Tesla Destination,200-9,40.740828,-74.008074,,J1772 TESLA,Public,,,,
115190,ELEC,Chelnik Parking NYC 880 5th - Tesla Destination,New York,NY,,2.0,,Tesla Destination,200-8,40.770385,-73.968296,,TESLA,Public,,,,
115191,ELEC,Icon 9-11 Park Ave - Tesla Destination,New York,NY,,3.0,,Tesla Destination,200-9,40.747207,-73.980743,,J1772 TESLA,Public,,,,
115192,ELEC,Rapidpark 9-11 W 100th Street - Tesla Destination,New York,NY,,3.0,,Tesla Destination,200-9,40.794681,-73.963228,,J1772 TESLA,Public,,,,
115193,ELEC,Quik Park West 57 LLC - Tesla Destination,New York,NY,,3.0,,Tesla Destination,200-9,40.763888,-73.97499,,J1772 TESLA,Public,,,,
115194,ELEC,GGMC Parking Stewart House Garage - Tesla Destination,New York,NY,,3.0,,Tesla Destination,200-8,40.73099,-73.990963,,J1772 TESLA,Public,,,,
115195,ELEC,Rapidpark 920 Park Avenue - Tesla Destination,New York,NY,,3.0,,Tesla Destination,200-9,40.776673,-73.960253,,J1772 TESLA,Public - Appeler à l'avance,CALL,,,
115196,ELEC,MPG 923 5th Ave - Tesla Destination,New York,NY,,3.0,,Tesla Destination,200-9,40.773173,-73.966026,,J1772 TESLA,Public,,,,
115197,ELEC,GGMC The Cove - Tesla Destination,New York,NY,,3.0,,Tesla Destination,200-9,40.707624,-74.016593,,J1772 TESLA,Public,,,,
115198,ELEC,Icon Parking 990 Ave of the Americas - Tesla Destination,New York,NY,,3.0,,Tesla Destination,200-9,40.751363,-73.986389,,J1772 TESLA,Public,,,,
115199,ELEC,Red Coach Inn - Tesla Destination,Niagara Falls,NY,,2.0,,Tesla Destination,200-8,43.084562,-79.063781,,TESLA,Public,,,,
115200,ELEC,The Alpine Lodge - Tesla Destination,North Creek,NY,,2.0,,Tesla Destination,200-9,43.700216,-73.986141,,TESLA,Public,,,,
115201,ELEC,Great Pines - Tesla Destination,Old Forge,NY,,4.0,,Tesla Destination,200-9,43.758812,-74.859153,,TESLA,Public - Appeler à l'avance,CALL,,,
115202,ELEC,Holiday Inn Express Olean - Tesla Destination,Olean,NY,,3.0,,Tesla Destination,200-9,42.087509,-78.42909,,J1772 TESLA,Public - Appeler à l'avance,CALL,,,
115203,ELEC,Best Western Plus University Inn - Tesla Destination,Olean,NY,,3.0,,Tesla Destination,200-9,42.07645,-78.46697,,J1772 TESLA,Public,,,,
115204,ELEC,Fairfield Inn & Suites by Marriott Olean - Tesla Destination,Olean,NY,,3.0,,Tesla Destination,200-9,42.080327,-78.47779,,J1772 TESLA,Public,,,,
115205,ELEC,Hampton Inn Oneonta - Tesla Destination,Oneonta,NY,,2.0,,Tesla Destination,200-8,42.444012,-75.086447,,TESLA,Public,,,,
115206,ELEC,Home2 Suites by Hilton Oswego - Tesla Destination,Oswego,NY,,3.0,,Tesla Destination,GPS,43.46005493269746,-76.48272810945127,,J1772 TESLA,Public,,,,
115207,ELEC,Hampton Inn Corning/Painted Post - Tesla Destination,Painted Post,NY,,3.0,,Tesla Destination,200-9,42.149988,-77.108033,,J1772 TESLA,Public,,,,
115208,ELEC,Holiday Inn Express Painted Post - Corning Area - Tesla Destination,Painted Post,NY,,3.0,,Tesla Destination,200-8,42.171472,-77.107184,,J1772 TESLA,Public,,,,
115209,ELEC,Pindar Vineyards - Tesla Destination,Peconic,NY,,1.0,,Tesla Destination,200-9,41.034704,-72.46969,,TESLA,Public,,,,
115210,ELEC,La Belle Vie Bed & Breakfast - Tesla Destination,Penn Yan,NY,,2.0,,Tesla Destination,200-9,42.663782,-77.056454,,TESLA,Public,,,,
115211,ELEC,"Best Western Plus, Plattsburgh - Tesla Destination",Plattsburgh,NY,,2.0,,Tesla Destination,200-9,44.69659,-73.49153,,TESLA,Public,,,,
115212,ELEC,Cedar Lakes Estate - Tesla Destination,Port Jervis,NY,,4.0,,Tesla Destination,200-8,41.346021,-74.638058,,J1772 TESLA,Public,,,,
115213,ELEC,Hampton Inn Potsdam - Tesla Destination,Potsdam,NY,,3.0,,Tesla Destination,200-9,44.682982,-74.987514,,J1772 TESLA,Public,,,,
115216,ELEC,Home 2 Suites Queensbury - Tesla Destination,Queensbury,NY,,4.0,,Tesla Destination,200-9,43.32838,-73.681677,,J1772 TESLA,Public,,,,
115217,ELEC,Smoky Rock BBQ - Tesla Destination,Rhinebeck,NY,,3.0,,Tesla Destination,200-9,41.925496,-73.913269,,TESLA,Public,,,,
115218,ELEC,Jedediah Hawkins Inn - Tesla Destination,Riverhead,NY,,1.0,,Tesla Destination,200-9,40.947089,-72.579622,,TESLA,Public,,,,
115219,ELEC,Hyatt Place Long Island / East End - Tesla Destination,Riverhead,NY,,2.0,,Tesla Destination,200-8,40.918664,-72.656139,,TESLA,Public - Appeler à l'avance,CALL,,,
115220,ELEC,Fairfield Inn by Marriott Rochester Airport - Tesla Destination,Rochester,NY,,4.0,,Tesla Destination,200-9,43.12756,-77.665112,,J1772 TESLA,Public,,,,
115221,ELEC,"Country Inn & Suites By Carlson, Rochester-Pittsford - Tesla Destination",Rochester,NY,,3.0,,Tesla Destination,200-8,43.111488,-77.548676,,TESLA,Public,,,,
115222,ELEC,Fairfield Inn & Suites by Marriott Rochester West - Tesla Destination,Rochester,NY,,3.0,,Tesla Destination,200-8,43.204373,-77.673253,,J1772 TESLA,Public,,,,
115223,ELEC,Fairfield Inn by Marriott Rochester South - Tesla Destination,Rochester,NY,,3.0,,Tesla Destination,200-8,43.059322,-77.651957,,J1772 TESLA,Public,,,,
115224,ELEC,Ellwanger Estate Bed & Breakfast - Tesla Destination,Rochester,NY,,1.0,,Tesla Destination,200-9,43.13755,-77.615609,,TESLA,Public,,,,
115225,ELEC,"Country Inn & Suites by Radisson, Rochester Airport - Tesla Destination",Rochester,NY,,3.0,,Tesla Destination,200-9,43.10442,-77.616685,,J1772 TESLA,Public,,,,
115226,ELEC,Holiday Inn Hotel & Suites Rochester - Marketplace - Tesla Destination,Rochester,NY,,3.0,,Tesla Destination,200-8,43.087417,-77.616929,,J1772 TESLA,Public,,,,
115227,ELEC,Best Western Rochester Marketplace Inn - Tesla Destination,Rochester,NY,,3.0,,Tesla Destination,200-9,43.087708,-77.613092,,J1772 TESLA,Public,,,,
115228,ELEC,"Home2 Suites by Hilton Rochester Henrietta, NY - Tesla Destination",Rochester,NY,,3.0,,Tesla Destination,200-9,43.086754,-77.610599,,J1772 TESLA,Public,,,,
115229,ELEC,Hampton Inn Rome - Tesla Destination,Rome,NY,,3.0,,Tesla Destination,200-8,43.222098,-75.421363,,J1772 TESLA,Public,,,,
115230,ELEC,Wingate By Wyndham Rome - Tesla Destination,Rome,NY,,3.0,,Tesla Destination,200-9,43.209127,-75.412926,,J1772 TESLA,Public,,,,
115231,ELEC,Serendipity Labs Inc. - Tesla Destination,Rye,NY,,1.0,,Tesla Destination,200-9,40.983031,-73.687987,,TESLA,Public - Appeler à l'avance,CALL,,,
115232,ELEC,Baron's Cove - Tesla Destination,Sag Harbor,NY,,1.0,,Tesla Destination,200-9,41.000092,-72.30043,,TESLA,Public,,,,
115233,ELEC,The Point Resort - Tesla Destination,Saranac Lake,NY,,3.0,,Tesla Destination,200-9,44.303141,-74.330399,,J1772 TESLA,Public,,,,
115234,ELEC,Saratoga Auto Museum - Tesla Destination,Saratoga Springs,NY,,2.0,,Tesla Destination,200-8,43.057371,-73.804293,,TESLA,Public,,,,
115235,ELEC,Gideon Putnam Resort and Spa - Tesla Destination,Saratoga Springs,NY,,3.0,,Tesla Destination,200-9,43.057104,-73.79831,,J1772 TESLA,Public,,,,
115236,ELEC,Embassy Suites by Hilton Saratoga Springs - Tesla Destination,Saratoga Springs,NY,,2.0,,Tesla Destination,200-9,43.07885,-73.789832,,J1772 TESLA,Public,,,,
115237,ELEC,Sunset Beach Hotel - Tesla Destination,Shelter Island,NY,,3.0,,Tesla Destination,200-9,41.073469,-72.364514,,J1772 TESLA,Public,,,,
115238,ELEC,"Mirbeau Inn & Spa, Skaneateles - Tesla Destination",Skaneateles,NY,,3.0,,Tesla Destination,200-9,42.944626,-76.443793,,J1772 TESLA,Public,,,,
115239,ELEC,Sebonack Golf Club - Tesla Destination,Southampton,NY,,1.0,,Tesla Destination,200-8,40.902715,-72.450378,,TESLA,Public,,,,
115240,ELEC,Angelina's Ristorante - Tesla Destination,Staten Island,NY,,3.0,,Tesla Destination,200-9,40.51337,-74.25137,,TESLA,Public,,,,
115241,ELEC,Crowne Plaza Suffern-Mahwah - Tesla Destination,Suffern,NY,,4.0,,Tesla Destination,200-8,41.118791,-74.113794,,J1772 TESLA,Public,,,,
